stop_id,stop_code,stop_name,stop_lat,stop_lon
1,50001.0,Westbound Davie St @ Bidwell St,49.286458,-123.140424
10000,59326.0,Northbound No. 5 Rd @ McNeely Dr,49.179962,-123.09149
10001,59324.0,Northbound No. 5 Rd @ Woodhead Rd,49.18267,-123.091448
10002,59323.0,Southbound No. 5 Rd @ Cambie Rd,49.184252,-123.091627
10003,59325.0,Southbound No. 5 Rd @ Woodhead Rd,49.182051,-123.091659
10004,59327.0,Eastbound McNeely Dr @ No. 5 Rd,49.179586,-123.091105
10005,59329.0,Eastbound Jack Bell Dr @ McNeely Dr,49.179599,-123.087232
10006,59331.0,Eastbound Jack Bell Dr @ 12500 Block,49.178199,-123.084601
10007,59332.0,Northbound Jack Bell Dr @ Wyne Cres North,49.180787,-123.082085
10008,59335.0,Northbound Jacombs Rd @ Vanier Place,49.183053,-123.080188
10012,59702.0,Eastbound Lougheed Hwy @ Madison Ave,49.266312,-123.008094
10013,59701.0,Westbound Lougheed Hwy @ Madison Ave,49.266542,-123.009458
10017,53309.0,Westbound Lougheed Hwy @ Holdom Ave,49.265095,-122.982086
10018,53302.0,Eastbound Lougheed Hwy @ Holdom Ave,49.264649,-122.980395
10021,52835.0,Westbound Lougheed Hwy @ Sperling Ave,49.25941,-122.962966
10023,53304.0,Eastbound Lougheed Hwy @ Bainbridge Ave,49.258523,-122.955209
10028,53308.0,Westbound Lougheed Hwy @ Lake City Way,49.25443,-122.938606
10029,53305.0,Eastbound Lougheed Hwy @ Lake City Way,49.254139,-122.937052
10034,58349.0,Westbound Lougheed Hwy @ Production Way,49.253225,-122.917557
10035,59295.0,Westbound River Rd @ 23900 Block,49.182568,-122.559304
10036,59311.0,Southbound Turner Creek Dr @ Heritage Mountain Blvd,49.293537,-122.838479
10037,52553.0,Westbound Government Rd @ Brighton Ave,49.250879,-122.919712
10038,52552.0,Eastbound Government Rd @ Brighton Ave,49.250777,-122.919356
1004,50995.0,Northbound Cambie St @ W 59 Ave,49.217289,-123.116608
10040,59341.0,Southbound Cooney Rd @ Ackroyd Rd,49.171551,-123.13164
10042,59402.0,Southbound Smith Ave @ Fir St,49.244604,-123.019856
10046,59396.0,Westbound Beach Ave @ Howe St,49.274962,-123.132056
10047,59393.0,Westbound Beach Ave @ Hornby St,49.275543,-123.132974
10048,59392.0,Westbound Beach Ave @ Thurlow St,49.277896,-123.135648
10049,59391.0,Westbound Beach Ave @ Bute St,49.279589,-123.137338
10057,50087.0,Westbound Pacific St @ Richards St,49.273623,-123.127085
10058,50086.0,Westbound Pacific Blvd @ Drake St,49.27342,-123.124214
1006,50997.0,Northbound Cambie St @ W 54 Ave,49.22204,-123.116425
10060,59406.0,Eastbound River Rd @ 236 St,49.186932,-122.567124
10062,58662.0,Southbound Derwent Way @ Belgrave Way,49.182712,-122.929683
10063,53244.0,Southbound Sunnyside Rd @ Anmore Grocery Store,49.322138,-122.855795
10064,59390.0,Westbound Pacific St @ Jervis St,49.280964,-123.138406
10067,53318.0,Eastbound Brunette Ave @ Lougheed Hwy,49.236831,-122.870969
10068,53568.0,Westbound Brunette Ave @ Lougheed Hwy,49.236997,-122.8711
10070,59420.0,Eastbound Davie St @ Broughton St,49.283478,-123.136106
10071,52978.0,Northbound Willingdon Ave @ Albert St,49.282191,-123.003044
10073,59310.0,Northbound East Rd @ Blackberry Dr,49.300172,-122.835368
10074,59309.0,Southbound East Rd @ Blackberry Dr,49.300062,-122.835526
10076,59345.0,Southbound E Columbia St @ 600 Block,49.236815,-122.892659
10079,52524.0,Eastbound Deer Lake Parkway @ Wayburne Dr,49.241548,-122.997353
10085,58648.0,Northbound 52 St @ 7A Ave,49.016476,-123.079556
10090,58376.0,Northbound Sperling Ave @ Curtis St,49.27563,-122.964554
10092,58380.0,Southbound Kensington Ave @ Hastings St,49.279834,-122.97013
10095,59501.0,Eastbound Murray St @ 2900 Block,49.278787,-122.845471
10096,59491.0,Eastbound Murray St @ Klahanie Dr West,49.279358,-122.838591
10099,59499.0,Westbound Murray St @ Capilano Rd,49.28063,-122.830879
101,50101.0,Westbound Cornwall Ave @ Cypress St,49.272539,-123.148302
10100,59497.0,Westbound Murray St @ Klahanie Dr East,49.280637,-122.833714
10101,59500.0,Westbound Murray St @ 2900 Block,49.278915,-122.845681
10105,59481.0,Southbound Broadway St @ Cameron Ave,49.247786,-122.762468
10106,59503.0,Southbound Broadway St @ Mary Hill Bypass,49.242472,-122.762497
10110,59486.0,Southbound Underhill Ave @ 2700 Block,49.259302,-122.9278
10112,59509.0,Southbound Horseshoe Way @ Blacksmith Place,49.127969,-123.096021
10113,59502.0,Southbound 116 St @ 82 Ave,49.152873,-122.901627
10114,59513.0,Eastbound W Georgia St @ Hamilton St,49.280019,-123.114489
10128,59487.0,Northbound Glover Rd @ Hwy 10 Bypass,49.135762,-122.61103
10129,59488.0,Southbound Glover Rd @ Hwy 10 Bypass,49.13588,-122.61123
1013,51004.0,Northbound Seymour St @ Davie St,49.276811,-123.124629
10130,59518.0,Northbound Banbury Rd @ Gallant Ave,49.326512,-122.949168
10131,59229.0,Westbound Hansen Rd @ Grosvenor Rd,49.204352,-122.836473
10132,53931.0,Southbound Johnson St @ Guildford Way,49.284778,-122.801761
10134,59484.0,Westbound Robson Dr @ Madrona Place,49.300339,-122.79179
10135,59496.0,Northbound Pinetree Way @ Silver Springs Blvd,49.294729,-122.788704
10138,59483.0,Westbound Robson Dr @ Pinetree Way,49.298993,-122.78761
10139,59495.0,Northbound Pinetree Way @ 1300 Block,49.292615,-122.790129
10141,59479.0,Northbound Coast Meridian Rd @ Coquitlam Ave,49.267676,-122.756
10142,53700.0,Southbound Broadway St @ Industrial Ave,49.24518,-122.762542
10144,59534.0,Eastbound Westminster Hwy @ Hwy 91 Offramp,49.167956,-122.975056
10145,59505.0,Eastbound Johnson St @ 1400 Block,49.30081,-122.796798
10148,59897.0,Eastbound 64 Ave @ 168 St,49.118797,-122.755909
10149,59891.0,Westbound 64 Ave @ 176 St,49.118876,-122.735903
10151,59549.0,Eastbound 6th Ave @ 18 St,49.202286,-122.940342
10159,59243.0,Westbound 112 Ave @ 136 St,49.206235,-122.845834
1016,58065.0,Northbound Seymour St @ W Georgia St,49.281477,-123.117549
10163,59825.0,Southbound 168 St @ 80 Ave,49.146242,-122.756697
1017,51008.0,Southbound Granville St @ W 45 Ave,49.230342,-123.139857
10171,58878.0,Southbound Noons Creek Dr @ Dogwood Place,49.291372,-122.824052
10172,59101.0,Southbound Heritage Mountain Blvd @ Ravine Dr,49.289083,-122.83355
10174,59573.0,Northbound 124 St @ 58A Ave,49.108911,-122.879043
10175,55509.0,Southbound 128 St @ 60 Ave,49.11234,-122.867983
10176,59571.0,Westbound 60 Ave @ 126 St,49.111851,-122.873913
10178,59572.0,Eastbound 60 Ave @ 126 St,49.111737,-122.872683
10179,59575.0,Southbound 124 St @ 59A Ave,49.110572,-122.879193
1018,59042.0,63 Ave Loop @ Granville St,49.21392,-123.140853
10180,59576.0,Northbound N Boundary Rd @ Eton St,49.287718,-123.023214
10181,58257.0,Eastbound 48 Ave @ Laidlaw St,49.090072,-123.085518
10184,52863.0,Westbound Cameron St @ Morrey Court,49.253498,-122.8967
10188,59590.0,Eastbound 58 Ave @ 176 St,49.107725,-122.734514
10189,59795.0,Westbound 58 Ave @ 176A St,49.107856,-122.733279
1019,51010.0,Westbound W 64 Ave @ Adera St,49.213261,-123.144003
10190,59591.0,Westbound 58 Ave @ 177B St,49.107855,-122.730925
10191,59493.0,Westbound Murray St @ Hugh St,49.278926,-122.848134
10192,59494.0,Eastbound Murray St @ Hugh St,49.278797,-122.847702
10194,58374.0,Northbound Sperling Ave @ Union St,49.278015,-122.964558
10196,59767.0,VCC-Clark Station @ Unloading Only,49.266014,-123.080036
10198,59616.0,Eastbound Mall Access Rd @ Meadowtown Centre,49.220613,-122.672576
10199,59605.0,Southbound 200 St @ 64 Ave,49.118495,-122.668744
1020,51011.0,Northbound Angus Dr @ W 64 Ave,49.21358,-123.148376
10202,59781.0,Westbound Beresford St @ Royal Oak Ave,49.219859,-122.98817
10204,51876.0,Westbound Hastings St @ Springer Ave,49.280441,-122.988354
10205,51875.0,Westbound Hastings St @ Howard Ave,49.28043,-122.984501
10208,59044.0,Southbound Tower Rd @ University High Street,49.277133,-122.909375
10209,59704.0,Eastbound Bridgeport Rd @ Great Canadian Way,49.191931,-123.123173
1021,51012.0,Northbound Angus Dr @ W 61 Ave,49.215648,-123.148305
10210,59697.0,Northbound 240 St @ 112 Ave,49.206124,-122.556596
10211,59695.0,Northbound 240 St @ 11500 Block,49.212037,-122.556692
10212,59698.0,Southbound 240 St @ Kanaka Way,49.205433,-122.556703
10217,59696.0,Southbound 240 St @ 11500 Block,49.211555,-122.556883
10218,59693.0,Northbound 240 St @ 118 Ave,49.21665,-122.55685
1022,51013.0,Northbound West Blvd @ W 60 Ave,49.217447,-123.14921
10221,59721.0,Westbound North Fraser Way @ Glenlyon Parkway West,49.200252,-123.010666
10222,53301.0,Eastbound Lougheed Hwy @ Douglas Rd,49.264976,-122.991151
10228,54784.0,Southbound Tidewater Way @ Kelvin Grove Way,49.452393,-123.237667
10229,59674.0,Northbound Antrim Ave @ Victory St,49.21882,-122.984964
1023,51014.0,Northbound West Blvd @ W 57 Ave,49.219817,-123.150612
10231,59675.0,Southbound Patterson Ave @ Imperial St,49.221627,-123.012703
10232,59677.0,Southbound Patterson Ave @ Victory St,49.218127,-123.012508
10233,59679.0,Southbound Patterson Ave @ Rumble St,49.214602,-123.012488
10235,59678.0,Northbound Patterson Ave @ Rumble St,49.215171,-123.0123
10239,59690.0,Northbound Gilley Ave @ Keith St,49.20769,-122.97389
1024,51015.0,Northbound West Blvd @ W 54 Ave,49.221951,-123.151884
10240,59689.0,Northbound Gilley Ave @ Brynlor Dr,49.209028,-122.972921
10241,59688.0,Northbound Gilley Ave @ Ewart St,49.210454,-122.972279
10242,59682.0,Eastbound Rumble St @ Sussex Ave,49.214778,-123.004608
10244,59683.0,Westbound Rumble St @ Gray Ave,49.214862,-122.999848
10245,59685.0,Westbound Rumble St @ Nelson Ave,49.214888,-122.994317
10246,59680.0,Westbound Rumble St @ McKay Ave,49.214873,-123.009187
10247,59673.0,Westbound Rumble St @ Royal Oak Ave,49.214922,-122.989193
10248,60790.0,Eastbound 64 Ave @ 176 St,49.118681,-122.734154
1025,51016.0,Northbound West Blvd @ W 51 Ave,49.224765,-123.15354
10250,60401.0,Eastbound 64 Ave @ 172 St,49.118733,-122.74546
10251,60752.0,Eastbound 64 Ave @ 184 St,49.11868,-122.711957
10252,60753.0,Eastbound 64 Ave @ 186 St,49.118783,-122.706555
10253,60797.0,Eastbound 64 Ave @ 188 St,49.118908,-122.700371
10255,60798.0,Eastbound 64 Ave @ 190 St,49.118979,-122.695869
10256,59599.0,Southbound 200 St @ 86 Ave,49.158596,-122.668182
10257,60799.0,Westbound 64 Ave @ 190 St,49.119112,-122.697661
10258,60772.0,Westbound 64 Ave @ 188 St,49.119036,-122.702518
10259,60773.0,Westbound 64 Ave @ 186 St,49.118909,-122.708121
1026,51017.0,Northbound Arbutus St @ W 51 Ave,49.225393,-123.155125
10260,60789.0,Westbound 64 Ave @ 184 St,49.118828,-122.712983
10261,59894.0,Westbound 64 Ave @ 172 St,49.11894,-122.746743
10263,58061.0,Southbound Cessna Dr @ Miller Rd,49.191485,-123.141798
10264,59631.0,Northbound Harris Rd @ Civic Centre,49.221141,-122.689447
10267,59629.0,Westbound Ford Rd @ 190A St,49.222496,-122.694363
10268,59628.0,Westbound Ford Rd @ 189B St,49.222501,-122.696219
10269,59627.0,Northbound 189A St @ Ford Rd,49.222731,-122.697676
1027,51018.0,Northbound West Blvd @ W 49 Ave,49.227498,-123.155196
10270,59624.0,Eastbound 122 Ave @ 189A St,49.22429,-122.697301
10271,59625.0,Eastbound 122 Ave @ 190 St,49.224298,-122.69453
10272,59626.0,Eastbound 122 Ave @ 191B St,49.224312,-122.691095
10274,59609.0,Eastbound Park Rd @ 193 St,49.225549,-122.686323
10275,59611.0,Eastbound Park Rd @ Mcmyn Ave,49.225554,-122.682032
10276,59612.0,Northbound Park Rd @ Somerset Dr,49.224982,-122.676923
10277,59638.0,Southbound N Wildwood Cres @ Hammond Rd,49.21694,-122.675166
10278,59639.0,Southbound N Wildwood Cres @ Wildwood Place,49.214673,-122.674125
10279,59640.0,Southbound N Wildwood Cres @ 19800 Block,49.214134,-122.671672
1028,51019.0,Northbound West Blvd @ W 46 Ave,49.230145,-123.155632
10280,59641.0,Southbound Wildwood Cres @ 116A Ave,49.21199,-122.670819
10281,59642.0,Westbound S Wildwood Cres @ 19800 Block,49.210753,-122.672335
10282,59637.0,Westbound S Wildwood Cres @ 19600 Block,49.211523,-122.676583
10283,59635.0,Westbound 116B Ave @ Bonson Rd,49.214474,-122.678639
10284,59636.0,Northbound Bonson Rd @ S Wildwood Cres,49.211844,-122.678195
10285,59634.0,Westbound 116B Ave @ Blakely Rd,49.214448,-122.683394
10286,59633.0,Northbound Blakely Rd @ 117 Ave,49.21547,-122.683748
10288,59671.0,Southbound Nelson Ave @ Rumble St,49.214497,-122.993973
1029,51020.0,Northbound West Blvd @ W 45 Ave,49.231163,-123.155603
10290,59670.0,Southbound Nelson Ave @ Clinton St,49.212593,-122.994004
10292,59669.0,Southbound Nelson Ave @ McKee Place,49.210732,-122.994011
10293,59668.0,Southbound Nelson Ave @ Patrick Place,49.208615,-122.996792
10294,59148.0,Northbound 203 St @ Dewdney Trunk Rd,49.220674,-122.656936
10295,59650.0,Southbound Laity St @ 12200 Block,49.225729,-122.631874
10296,59652.0,Southbound Laity St @ 122 Ave,49.224048,-122.631889
10297,59654.0,Southbound Laity St @ 12100 Block,49.223199,-122.631885
10299,59656.0,Southbound Laity St @ Cook Ave,49.218665,-122.631956
103,50103.0,Westbound Cornwall Ave @ Arbutus St,49.272608,-123.152989
1030,51021.0,Northbound West Blvd @ W 43 Ave,49.232961,-123.155537
10300,59659.0,Southbound Laity St @ Cutler Place,49.216218,-122.631989
10305,59660.0,Northbound Laity St @ 117 Ave,49.215285,-122.631858
10306,59706.0,Southbound 224 St @ 124 Ave,49.227258,-122.601426
10308,59658.0,Northbound Laity St @ Lougheed Hwy,49.217963,-122.631811
10309,59707.0,Southbound 224 St @ 122 Ave,49.223909,-122.601462
1031,51022.0,Northbound West Blvd @ W 41 Ave,49.2349,-123.155429
10310,59657.0,Northbound Laity St @ Cook Ave,49.219438,-122.631799
10313,59711.0,Southbound Edge St @ Brown Ave,49.221082,-122.597881
10314,59653.0,Northbound Laity St @ 121 Ave,49.223603,-122.631776
10315,59651.0,Northbound Laity St @ 122 Ave,49.224907,-122.631757
10316,59149.0,Southbound 203 St @ Lougheed Hwy,49.220665,-122.65716
1032,51023.0,Northbound West Blvd @ W 39 Ave,49.236779,-123.155392
10326,59734.0,Eastbound Murray St @ Klahanie Dr East,49.280456,-122.832769
10327,59733.0,Southbound 124 St @ 58A Ave,49.108542,-122.879218
10328,60887.0,Caulfeild Village @ Safeway,49.350855,-123.252168
10329,59681.0,Westbound Rumble St @ Sussex Ave,49.214867,-123.005284
1033,51024.0,Northbound West Blvd @ W 37 Ave,49.238609,-123.155335
10330,59606.0,Southbound Willingdon Ave @ Maywood St,49.224417,-123.011162
10331,59607.0,Northbound Willingdon Extension @ Imperial St,49.222365,-123.012456
10335,59739.0,Southbound Byrne Rd @ Meadow Ave,49.204316,-122.977921
10336,59741.0,Westbound Southridge Dr @ Byrnepark Dr,49.205818,-122.968894
10339,59742.0,Eastbound Southridge Dr @ Byrnepark Dr,49.205619,-122.967999
10340,59745.0,Northbound Griffiths Dr @ 10 Ave,49.206235,-122.952433
10342,59743.0,Northbound Griffiths Dr @ 14 Ave,49.2102,-122.954091
10343,59774.0,Westbound Lougheed Hwy @ 226 St,49.217181,-122.59665
10344,59773.0,Westbound Lougheed Hwy @ 224 St,49.217028,-122.601051
10345,59778.0,Northbound 227 St @ Dewdney Trunk Rd,49.220874,-122.59391
10347,59777.0,Northbound 227 St @ 121 Ave,49.22277,-122.593855
10349,59254.0,Eastbound Southridge Dr @ Marine Dr,49.204851,-122.975514
1035,51026.0,Northbound Arbutus St @ Quilchena Cres,49.241393,-123.153894
10350,59765.0,Westbound Great Northern Way @ Foley St,49.266404,-123.087137
10352,59761.0,Westbound E 2nd Ave @ Main St,49.269283,-123.101217
10357,59751.0,Westbound W 6th Ave @ Alder Crossing,49.266199,-123.132576
10359,59754.0,Eastbound W 6th Ave @ Heather St,49.265832,-123.120144
1036,51027.0,Northbound Arbutus St @ W 33 Ave,49.242436,-123.153359
10360,61039.0,Olympic Village Station @ Bay 2,49.266425,-123.114936
10361,59758.0,Eastbound W 2nd Ave @ Columbia St,49.269029,-123.109733
10362,59760.0,Eastbound E 2nd Ave @ Ontario St,49.269125,-123.104153
10364,59763.0,Eastbound Great Northern Way @ Brunswick St,49.266743,-123.095812
10365,59766.0,Eastbound Great Northern Way @ Foley St,49.266021,-123.086122
10366,59646.0,Northbound West St @ Maple Meadows Station,49.216888,-122.664763
1037,51028.0,Northbound Arbutus St @ Valley Dr,49.245478,-123.153186
10371,59783.0,Northbound Boundary Rd @ E Kent Ave North,49.203898,-123.023178
10376,59780.0,Southbound Patterson Ave @ Clinton St,49.212629,-123.012493
10377,59649.0,Westbound Hammond Rd @ 20200 Block,49.213596,-122.660143
10378,59775.0,Southbound 228 St @ Dewdney Trunk Rd,49.220113,-122.590426
10379,59794.0,Northbound Cloverdale Bypass @ 58 Ave,49.108571,-122.735851
1038,51029.0,Northbound Arbutus St @ Nanton Ave,49.247961,-123.153085
10383,57381.0,Northbound 53 St @ 3000 Block,49.05737,-123.076889
10384,59687.0,Northbound Greenall Ave @ Marine Way,49.206144,-123.017836
10385,59258.0,Southbound Arthur Dr @ 3800 Block,49.07374,-123.078933
10387,59661.0,Westbound Barnet Rd @ Cariboo Rd,49.287913,-122.915262
10388,59662.0,Eastbound Barnet Rd @ Cariboo Rd,49.287702,-122.914775
10390,52704.0,Southbound Roseberry Ave @ Keith St,49.206391,-123.015277
10399,59832.0,Southbound Howe St @ Dunsmuir St,49.284576,-123.117067
10400,59831.0,Southbound Howe St @ W Pender St,49.285048,-123.116344
10401,59819.0,Northbound Shaughnessy St @ Shaughnessy Place,49.294363,-122.770892
10402,59621.0,Southbound Garden City Rd @ Leslie Rd,49.178984,-123.124761
10404,59838.0,Southbound Main St @ E 39 Ave,49.235131,-123.101698
10405,59784.0,Southbound Griffiths Dr @ Southridge Dr,49.206149,-122.952684
10407,59847.0,Westbound 32 Ave Diversion @ 32 Ave,49.06021,-122.807545
1041,51032.0,Northbound Arbutus St @ W 20 Ave,49.254791,-123.15286
10411,59006.0,Westbound Citadel Dr @ Capital Court,49.228417,-122.790545
10412,58570.0,Westbound Fraser Hwy @ 216 St,49.09645,-122.625752
10413,59849.0,Eastbound Fraser Hwy @ 216 St,49.09569,-122.623945
10417,59617.0,Northbound Mall Access Rd @ Meadowtown Centre,49.221056,-122.670767
1042,58723.0,Northbound Arbutus St @ W 16 Ave,49.257604,-123.152846
10424,50024.0,Westbound Davie St @ Richards St,49.276179,-123.124555
10426,59883.0,Eastbound Lansdowne Rd @ Kwantlen St,49.173705,-123.128278
10427,59851.0,Westbound 20 Ave @ Rotary Way,49.038515,-122.818687
10428,59852.0,South Delta Exchange @ Bay 3,49.03611,-123.066984
10429,59868.0,Edmonds Station @ Bay 7,49.212044,-122.958701
1043,51034.0,Northbound Arbutus St @ W 15 Ave,49.258543,-123.152972
10431,59930.0,Southbound Hudson St @ SW Marine Dr,49.202765,-123.134919
10433,59940.0,Westbound Stadium Rd @ West Mall,49.25498,-123.24893
10435,59929.0,Main Street-Science World Station @ Bay 3,49.273162,-123.098684
10437,59931.0,South Surrey Park & Ride @ Bay 4,49.07214,-122.822421
10439,58762.0,Southbound Fraser St @ SE Marine Dr,49.211303,-123.091221
10440,53515.0,Eastbound Brunette Ave @ Blue Mountain St,49.236125,-122.873272
10441,50015.0,Eastbound Pacific Blvd @ Drake St,49.273429,-123.123135
10442,55427.0,Northbound King George Blvd @ 105A Ave,49.194719,-122.845091
10443,59950.0,Southbound King George Blvd @ 32 Ave,49.060991,-122.812831
10445,59087.0,Northbound King George Blvd @ 148 St,49.06158,-122.813185
10447,59118.0,Eastbound Ewen Ave @ McGillivray Place,49.18861,-122.940844
10450,59942.0,Westbound Thunderbird Blvd @ Larkin Dr,49.259061,-123.249148
10451,59941.0,Southbound West Mall @ Hawthorn Lane,49.257665,-123.249997
10454,59964.0,Northbound NW Marine Dr @ Agronomy Rd,49.259575,-123.254983
10455,59957.0,Eastbound NW Marine Dr @ East Mall,49.270734,-123.254576
10456,59946.0,Southbound Wesbrook Mall @ Iona Dr,49.271678,-123.248276
1046,51037.0,Southbound Renfrew St @ E Hastings St,49.280776,-123.044219
10465,59916.0,Eastbound Pacific Blvd @ Boathouse Mews,49.27421,-123.117633
10466,59924.0,Southbound Quebec St @ Keefer St,49.279008,-123.102218
10467,59918.0,Eastbound Pacific Blvd @ Marinaside Cres,49.274212,-123.114446
10468,50016.0,Yaletown-Roundhouse Station @ Bay 4,49.274036,-123.120842
1047,51038.0,Southbound Renfrew St @ E Georgia St,49.277967,-123.044227
10470,58169.0,Eastbound Keefer Place @ Taylor St,49.279326,-123.105758
10471,59914.0,Westbound Pacific Blvd @ Cambie St,49.274606,-123.119683
10478,59926.0,Eastbound National Ave @ Quebec St,49.27487,-123.101464
10479,59884.0,Westbound Southridge Dr @ 6600 Block,49.204888,-122.95922
1048,51039.0,Southbound Renfrew St @ Venables St,49.276141,-123.044245
10480,59925.0,Northbound Quebec St @ Terminal Ave,49.273368,-123.101534
10481,51913.0,Westbound W 4th Ave @ Blanca St,49.269195,-123.215565
10482,59927.0,Northbound Quebec St @ National Ave,49.275246,-123.101804
10483,59885.0,Eastbound Southridge Dr @ 6600 Block,49.204135,-122.957414
10484,59814.0,Northbound Roseberry Ave @ Keith St,49.207207,-123.015048
10485,59985.0,Southbound 80 St @ 4700 Block,49.087385,-123.001796
10486,59928.0,Eastbound National Ave @ Main St,49.274846,-123.099334
10487,51133.0,Westbound Keefer St @ Columbia St,49.279267,-123.102946
10489,59986.0,Westbound 28 Ave @ 200 St,49.052926,-122.670019
1049,51040.0,Southbound Renfrew St @ William St,49.273888,-123.044287
10490,59987.0,Westbound 28 Ave @ 197A St,49.052921,-122.677559
10491,59988.0,Eastbound 24 Ave @ 196 St,49.045605,-122.679872
10492,59992.0,Northbound Pat Quinn Way @ Expo Blvd,49.278392,-123.107518
105,50105.0,Westbound Cornwall Ave @ Balsam St,49.272731,-123.160216
1050,51041.0,Southbound Renfrew St @ Kitchener St,49.271997,-123.04431
1051,51042.0,Southbound Renfrew St @ E 1st Ave,49.269159,-123.044397
10513,60014.0,Westbound Expo Blvd @ Nelson St,49.274765,-123.116234
10514,51925.0,Eastbound NW Marine Dr @ West Mall,49.268769,-123.258526
10519,59958.0,Northbound Minoru Blvd @ Granville Ave,49.163125,-123.140081
1052,51043.0,Southbound Renfrew St @ E 4th Ave,49.266425,-123.044405
10520,59959.0,Northbound Minoru Blvd @ Minoru Gate,49.165311,-123.140881
10521,60181.0,Northbound Minoru Blvd @ Murdoch Ave,49.167451,-123.140099
10522,59962.0,Northbound Minoru Blvd @ Westminster Hwy,49.170638,-123.140054
1053,51044.0,Southbound Renfrew St @ E 5th Ave,49.265468,-123.044419
10534,59974.0,Northbound Great Canadian Way @ Beckwith Rd,49.193077,-123.124243
1054,51045.0,Southbound Renfrew St @ E 8th Ave,49.262644,-123.044459
10542,50067.0,Eastbound Cornwall Ave @ Balsam St,49.272582,-123.159332
10549,59304.0,Westbound Dewdney Trunk Rd @ Fraser St,49.220544,-122.599936
10550,59710.0,Westbound Dewdney Trunk Rd @ 223 St,49.220551,-122.604122
10553,50408.0,Northbound Seymour St @ W Hastings St,49.28481,-123.112535
10554,59983.0,Westbound Fraser Hwy @ 222 St,49.091951,-122.608976
10557,59708.0,Eastbound Brown Ave @ 224 St,49.221507,-122.600945
10558,52226.0,Westbound Miller Rd @ Templeton St,49.192217,-123.149384
10564,58084.0,Braid Station @ Bay 4,49.233381,-122.882642
10565,53663.0,Westbound United Blvd @ Schooner St,49.228187,-122.840174
10567,59911.0,Eastbound Mary Hill Bypass @ Broadway St,49.241462,-122.76024
10568,59912.0,Westbound Mary Hill Bypass @ Kingsway Ave,49.246142,-122.750353
1057,51048.0,Southbound Renfrew St @ Grandview Hwy,49.257863,-123.044471
10574,60070.0,Southbound 80 St @ River Way,49.144143,-123.001707
10575,60069.0,Westbound River Way @ 82 St,49.145467,-122.997441
10576,60071.0,Eastbound River Way @ 80 St,49.144798,-123.000193
10577,60072.0,Northbound 82 St @ River Way,49.1461,-122.996558
10578,52425.0,Southbound 6th St @ Royal Ave,49.205995,-122.911456
1058,51049.0,Southbound Renfrew St @ E 15 Ave,49.255993,-123.044447
10581,59750.0,Eastbound Murray St @ Capilano Rd,49.28043,-122.830486
10582,59982.0,Southbound Buswell St @ Cook Rd,49.16621,-123.133812
10583,59951.0,Westbound Ioco Rd @ Walton Way,49.292293,-122.851541
10585,59895.0,Eastbound 64 Ave @ 16900 Block,49.118768,-122.750999
10586,59896.0,Westbound 64 Ave @ 16900 Block,49.11896,-122.751882
10587,59892.0,Westbound 64 Ave @ 174A St,49.11889,-122.739775
10588,59893.0,Eastbound 64 Ave @ 173A St,49.118718,-122.741828
1059,51050.0,Southbound Renfrew St @ E 17 Ave,49.254177,-123.044433
10591,60302.0,Northbound Cambie St @ Dunsmuir St,49.280182,-123.111842
10592,60201.0,Southbound Pinetree Way @ David Ave,49.293797,-122.790462
10594,59562.0,Eastbound Rochester Ave @ Goyer Court,49.244979,-122.853637
10595,50138.0,Eastbound W 41 Ave @ Columbia St,49.23327,-123.111462
10597,52853.0,Southbound Eastlake Dr @ Centaurus Dr,49.256481,-122.910285
10598,60521.0,Northbound 180 St @ 55 Ave,49.102886,-122.723724
1060,51051.0,Southbound Renfrew St @ E 20 Ave,49.252041,-123.044456
10600,59995.0,Northbound Walker Ave @ Imperial Ave,49.224605,-122.957702
10603,59676.0,Northbound Patterson Ave @ Victory St,49.218594,-123.01236
10604,59604.0,Southbound Riverside Dr @ Riverside Close,49.26251,-122.742419
10605,59854.0,Southbound Glover Rd @ Rawlison Cres,49.154497,-122.591044
10606,59853.0,Northbound Glover Rd @ Rawlison Cres,49.154475,-122.590859
10607,59846.0,Eastbound Derwent Way @ Humber Place,49.165246,-122.945487
10608,59841.0,Northbound 240 St @ 109 Ave,49.200431,-122.556568
1061,51052.0,Southbound Boyd Diversion @ E 22 Ave,49.250326,-123.044011
10611,59837.0,Northbound Main St @ E 22 Ave,49.251452,-123.100866
10612,56567.0,Southbound No. 3 Rd @ Alderbridge Way,49.176886,-123.136777
10613,60663.0,Eastbound 56 Ave @ Hwy 10,49.104403,-122.687502
10614,60661.0,Westbound 60 Ave @ 179 St,49.111524,-122.727349
10615,60702.0,Southbound Nestor St @ Tory Ave,49.289064,-122.778534
10617,59843.0,Northbound Main St @ 54 Ave,49.22134,-123.101649
10619,58613.0,Westbound E Broadway @ Fraser St,49.262593,-123.09009
1062,51053.0,Southbound Nootka St @ E 25 Ave,49.247621,-123.041717
10620,58614.0,Eastbound E Broadway  @ Fraser St,49.26236,-123.088379
10621,58625.0,Northbound Lonsdale Ave @ E 19 St,49.326627,-123.072103
10628,60754.0,Northbound 188 St @ 64 Ave,49.119726,-122.701633
10629,60763.0,Northbound 198 St @ Willowbrook Dr,49.118016,-122.674614
1063,51054.0,Southbound Nootka St @ E 27 Ave,49.245935,-123.041725
10633,60791.0,Westbound 64 Ave @ 177B St,49.118858,-122.731356
1064,51055.0,Westbound E 29 Ave @ Nootka St,49.244625,-123.042759
10641,59855.0,Westbound Fraser Hwy @ 182 St,49.13118,-122.718798
10642,55247.0,Eastbound Fraser Hwy @ 168 St,49.147436,-122.755697
10643,57140.0,Westbound Fraser Hwy @ 188 St,49.124178,-122.702492
10644,57092.0,Eastbound Fraser Hwy @ 188 St,49.123226,-122.70099
10645,60715.0,Westbound Fraser Hwy @ 68 Ave,49.126043,-122.706601
10646,60714.0,Eastbound Fraser Hwy @ 68 Ave,49.125368,-122.705744
10647,57141.0,Westbound Fraser Hwy @ 184 St,49.129092,-122.71329
10648,57091.0,Eastbound Fraser Hwy @ 184 St,49.128198,-122.711511
10649,60716.0,Westbound Fraser Hwy @ 18900 Block,49.121576,-122.696744
1065,51056.0,29th Avenue Station @ Bay 3,49.244134,-123.044757
10651,60726.0,Eastbound W Broadway @ Blenheim St,49.264155,-123.17742
10652,60727.0,Eastbound W Broadway St @ Balaclava St,49.264095,-123.173572
10655,60728.0,Eastbound W Broadway @ Bayswater St,49.264061,-123.170799
10656,52228.0,Westbound North Service Rd @ Air Canada Operations Centre,49.193291,-123.160097
10659,52229.0,Southbound Aviation Ave @ North Service Rd,49.193297,-123.166984
1066,51057.0,Southbound Earles St @ E 29 Ave,49.244188,-123.042637
10660,52968.0,Eastbound Eton St @ N Ingleton Ave,49.287392,-123.018147
10661,52967.0,Southbound N Esmond Ave @ McGill St,49.287961,-123.020951
10662,60743.0,Westbound Fraser Hwy @ 48 Ave,49.089916,-122.602524
10664,53538.0,Westbound Cottonwood Ave @ Easterbrook St,49.25818,-122.875986
10665,53544.0,Eastbound Cottonwood Ave @ Easterbrook St,49.258085,-122.875359
10666,57012.0,Westbound 40 Ave @ 200A St,49.074766,-122.668318
10668,60601.0,Northbound 128 St @ 80 Ave,49.14855,-122.867841
1067,51058.0,Southbound Earles St @ Vanness Ave,49.242853,-123.043935
10671,60750.0,Northbound 184 St @ 60 Ave,49.111824,-122.712514
10672,60751.0,Northbound 184 St @ 6200 Block,49.11534,-122.712489
10673,60755.0,Northbound 188 St @ Fraser Hwy,49.124045,-122.701454
10675,60756.0,Northbound 188 St @ 70 Ave,49.130061,-122.701575
1068,51059.0,Southbound Earles St @ Euclid Ave,49.240939,-123.045765
10689,60770.0,Southbound 188 St @ 70 Ave,49.129555,-122.701763
1069,51060.0,Southbound Earles St @ Horley St,49.239532,-123.047123
10690,60784.0,Southbound 188 St @ 68 Ave,49.125409,-122.701802
10692,60774.0,Southbound 184 St @ 64 Ave,49.11801,-122.712661
10693,60775.0,Southbound 184 St @ 63 Ave,49.115861,-122.712713
10694,50013.0,Eastbound Pacific St @ Richards St,49.273529,-123.127316
10695,60782.0,Eastbound 57 Ave @ 176A St,49.105915,-122.732833
107,50107.0,Southbound Macdonald St @ W 1st Ave,49.270753,-123.168323
1070,51061.0,Northbound Earles St @ Kingsway,49.238002,-123.048391
10700,60780.0,Northbound 176A St @ 57 Ave,49.106322,-122.733595
10701,60779.0,Northbound 176A St @ 58A Ave,49.108947,-122.733607
10702,60778.0,Northbound 176A St @ 60 Ave,49.110713,-122.733614
10703,60776.0,Northbound 200 St @ 119A Ave,49.219666,-122.665517
10704,60566.0,Westbound Williams Rd @ 5100 Block,49.141079,-123.167982
10705,53893.0,Westbound Falcon Dr @ 1200 Block,49.287184,-122.82122
10707,55939.0,Eastbound 64 Ave @ Wade Rd,49.119346,-122.896549
10710,60730.0,Westbound 115 Ave @ 132 St,49.211415,-122.856729
10711,60731.0,Westbound 115 Ave @ Bridgeview Dr,49.211273,-122.86047
10712,55100.0,Westbound 114 Ave @ 126A St,49.209884,-122.871326
10713,55101.0,Westbound 114 Ave @ 124 St,49.209892,-122.877437
10714,60733.0,Southbound 124 St @ 112A Ave,49.206998,-122.878726
10715,60734.0,Eastbound 111A Ave @ 12300 Block,49.205567,-122.880315
10716,60735.0,Eastbound King George Blvd @ Scott Rd Onramp,49.206094,-122.870306
10718,60737.0,Westbound 111A Ave @ 12300 Block,49.205673,-122.881086
10719,60738.0,Eastbound 112 Ave @ 124 St,49.206293,-122.879697
10720,55160.0,Eastbound 114 Ave @ 124 St,49.209825,-122.877824
10721,55161.0,Eastbound 114 Ave @ 126A St,49.209761,-122.869055
10722,60740.0,Eastbound 115 Ave @ Bridgeview Dr,49.21115,-122.86105
10723,60741.0,Southbound 132 St @ 115 Ave,49.210982,-122.856425
10726,60792.0,Eastbound 64 Ave @ 177B St,49.118673,-122.730037
10727,60796.0,Eastbound 64 Ave @ 181A St,49.118669,-122.719315
10731,59645.0,Southbound West St @ Maple Meadows Station,49.216815,-122.664953
10736,60723.0,Southbound 200 St @ Maple Meadows Way,49.2198,-122.665955
10737,60861.0,Northbound 201A St @ Michaud Cres,49.102443,-122.664137
10739,60866.0,Westbound 56 Ave @ 213A St,49.104567,-122.631667
1074,51065.0,Southbound Clarendon St @ E 38 Ave,49.235635,-123.05558
10740,60867.0,Eastbound 56 Ave @ 213A St,49.104374,-122.631454
10741,60882.0,Westbound Bus Access Rd @ Burns Dr,49.091147,-122.965068
10744,60868.0,Northbound Ferry Rd @ Commodore Dr,49.106195,-123.078934
10745,51967.0,Langara-49th Station @ Bay 3,49.226003,-123.11584
10747,60865.0,Westbound 56 Ave @ 203 St,49.104386,-122.66168
10748,60864.0,Southbound 203 St @ 56 Ave,49.103695,-122.660498
1075,51066.0,Southbound Clarendon St @ E 40 Ave,49.233499,-123.055616
10753,60884.0,Southbound Arborlynn Dr @ Mountain Hwy,49.317462,-123.035802
10755,51600.0,Northbound Wesbrook Mall @ 2900 Block,49.258778,-123.238774
10757,60858.0,Southbound Fraserwood Place @ Westminster Hwy,49.168184,-122.983805
10758,60856.0,Northbound Graybar Rd @ Westminster Hwy,49.168304,-122.989641
10759,60857.0,Westbound Gordon Way @ 21300 Block,49.167469,-122.987092
1076,51067.0,Westbound E 41 Ave @ Clarendon St,49.232902,-123.055955
10762,60965.0,Westbound Fulton Ave @ 14 St,49.331576,-123.154757
10763,60966.0,Eastbound Inglewood Ave @ 13 St,49.334493,-123.153657
10764,60967.0,Eastbound Mathers Ave @ 2000 Block,49.338154,-123.167739
10765,60968.0,Northbound Eyremount Dr @ Groveland Rd,49.351835,-123.13938
10769,59300.0,Eastbound North Fraser Way @ Glenlyon Parkway West,49.200053,-123.009524
1077,51068.0,Westbound E 41 Ave @ Nanaimo St,49.232926,-123.059252
10771,59299.0,Eastbound North Fraser Way @ 5000 Block,49.200111,-123.004741
10778,60974.0,Westbound Steveston Hwy @ Entertainment Blvd,49.133711,-123.066813
1078,51069.0,Westbound E 41 Ave @ Gladstone St,49.232961,-123.062675
10781,60842.0,Westbound Blundell Rd @ 18300 Block,49.159552,-123.018922
10787,60973.0,Southbound 152 St @ 62 Ave,49.114079,-122.80117
10788,60846.0,Eastbound Blundell Rd @ 18300 Block,49.159374,-123.017739
1079,51070.0,Eastbound E 41 Ave @ Victoria Dr,49.232565,-123.065972
10790,60847.0,Northbound Nelson Rd @ Blundell Rd,49.160346,-123.012722
10792,60869.0,Northbound Ferry Rd @ Windjammer Rd,49.107891,-123.078681
10794,60871.0,Eastbound Admiral Way @ Ferry Rd,49.111885,-123.077396
10795,60872.0,Eastbound Admiral Way @ 5300 Block,49.112105,-123.074987
10797,60873.0,Southbound Admiral Blvd @ Cove Inlet Rd,49.110769,-123.072289
10798,60874.0,Southbound Admiral Blvd @ Cove Link Rd,49.108765,-123.073358
10799,50475.0,King Edward Station @ Bay 2,49.249415,-123.115245
1080,51071.0,Eastbound Kingsway @ Wales St,49.238656,-123.051416
10801,59684.0,Eastbound Rumble St @ Gray Ave,49.214781,-122.999097
10802,50421.0,Southbound Cambie St @ W 31 Ave,49.242949,-123.118428
10803,50469.0,Northbound Cambie St @ W 37 Ave,49.237495,-123.1158
10804,50423.0,Southbound Cambie St @ W 35 Ave,49.238762,-123.116678
10805,50471.0,Northbound Cambie St @ W 33 Ave,49.241409,-123.11818
10806,50476.0,Northbound Cambie St @ W 22 Ave,49.251472,-123.115164
10807,60681.0,Southbound Knight St @ E 19 Ave,49.253194,-123.07613
10808,55398.0,Northbound King George Blvd @ 5000 Block,49.094553,-122.817737
10809,50477.0,Northbound Cambie St @ W 20 Ave,49.253243,-123.115102
1081,51072.0,Northbound Earles St @ Horley St,49.23999,-123.046457
10810,50478.0,Northbound Cambie St @ W 18 Ave,49.255125,-123.115019
10811,60995.0,Eastbound Chippendale Rd @ Westhill Dr (Flag),49.349419,-123.163179
10812,59583.0,Southbound Main St @ E 49 Ave,49.225333,-123.10178
10813,51703.0,Southbound Rupert St @ E 1st Ave,49.269052,-123.033883
10814,59580.0,Southbound Main St @ E 2nd Ave,49.268688,-123.100898
10815,51704.0,Southbound Rupert St @ E 3rd Ave,49.267232,-123.033871
10816,59581.0,Northbound Main St @ E 16 Ave,49.256943,-123.101068
10819,60999.0,Northbound On 21 St @ Ottawa Ave (Flag),49.340168,-123.16795
1082,51073.0,Northbound Earles St @ Euclid Ave,49.241376,-123.045131
10820,61000.0,Westbound On Skilift Rd @ Folkestone Way (Flag),49.344317,-123.172086
10821,61001.0,Northbound On Folkestone Way @ Chippendale Rd (Flag),49.349093,-123.177404
10822,61002.0,Southbound On Westhill Dr @ 2000 Block (Flag),49.344757,-123.167619
10823,61003.0,Southbound 21 St @ Ottawa Ave (Flag),49.339827,-123.168067
10827,54174.0,Northbound Grand Blvd East @ E Keith Rd,49.313876,-123.056468
10828,60990.0,Northbound 206 St @ 66 Ave,49.122855,-122.651312
10829,60987.0,Westbound 68 Ave @ 206 St,49.126159,-122.65239
1083,51074.0,Northbound Earles St @ Kings Ave,49.243327,-123.043266
10830,60991.0,Westbound 66 Ave @ 20400 Block,49.122624,-122.65547
10831,60986.0,Westbound 68 Ave @ 204A St,49.126205,-122.656122
10832,60985.0,Eastbound 68 Ave @ 204A St,49.126097,-122.655204
10833,60983.0,Southbound 203 St @ 68 Ave,49.125763,-122.66044
10834,60988.0,Southbound 206 St @ 68 Ave,49.125666,-122.651682
10835,60982.0,Northbound 203 St @ 66 Ave,49.123038,-122.659893
10836,60984.0,Eastbound 68 Ave @ 203 St,49.126123,-122.659202
10837,60992.0,Eastbound 66 Ave @ 20400 Block,49.1225,-122.655434
10838,60989.0,Southbound 206 St @ 66 Ave,49.122894,-122.651491
1084,51075.0,Northbound Nootka St @ E 26 Ave,49.247362,-123.041531
10841,61006.0,Southbound Ravine Dr @ Wildwood Dr East,49.29406,-122.828689
10849,58012.0,Westbound Adams Rd @ Cowan (Flag),49.363354,-123.382981
1085,51076.0,Northbound Boyd Diversion @ Nootka St,49.249584,-123.042078
10851,58767.0,Northbound Mt Gardner Rd @ Killarney Lake (Flag),49.389048,-123.356496
10852,57873.0,Westbound Dewdney Trunk Rd @ 26400 Block (Flag),49.220209,-122.489886
10854,55934.0,Southbound Hwy 91A Onramp @ Howes St,49.188232,-122.949453
10855,56029.0,Northbound Hwy 91A Onramp @ Howes St,49.187932,-122.947272
10856,61014.0,Eastbound 24 Ave @ 156 St,49.045489,-122.789656
10857,50992.0,Northbound Cambie St @ W 64 Ave,49.212634,-123.116832
1086,51077.0,Northbound Boyd Diversion @ E 22 Ave,49.250252,-123.043622
10860,58945.0,Moody Centre Station @ Bay 1 Unloading Only,49.277676,-122.84529
10861,50994.0,Northbound Cambie St @ W 61 Ave,49.215412,-123.116683
10863,50996.0,Northbound Cambie St @ W 57 Ave,49.219328,-123.116528
10864,60204.0,Westbound Oxford Connector @ 1900 Block,49.265203,-122.771539
10865,58724.0,Lonsdale Quay @ Bay 3,49.310917,-123.08258
10866,58725.0,Lonsdale Quay @ Bay 4,49.3111,-123.082393
10867,54134.0,Lonsdale Quay @ Bay 6,49.311066,-123.082557
10869,60841.0,Westbound Blundell Rd @ Nelson Rd,49.159567,-123.01418
1087,51078.0,Northbound Renfrew St @ E 21 Ave,49.25187,-123.044248
10871,59856.0,Eastbound Fraser Hwy @ 182 St,49.130262,-122.717088
10872,50990.0,Southbound Cambie St @ W 62 Ave,49.213825,-123.117204
10874,61028.0,Southbound 199A St @ 96 Ave,49.176466,-122.669453
10877,61029.0,Westbound Churchill St @ 7900 Block,49.082328,-123.004148
10879,54003.0,Lynn Valley @ Bay 4,49.336386,-123.038189
1088,51079.0,Northbound Renfrew St @ E 17 Ave,49.254646,-123.044228
10880,61035.0,Surrey Central Station @ Bay 12,49.189699,-122.847774
10881,61036.0,Surrey Central Station @ Bay 13,49.189684,-122.847558
10882,59526.0,Lynn Valley @ Bay 1,49.336608,-123.038743
10884,58124.0,Gateway Station @ Bay 2,49.199,-122.849243
10885,61064.0,Haney Place @ Bay 1,49.219454,-122.597616
10886,61063.0,Haney Place @ Bay 2,49.219451,-122.59727
10887,61062.0,Haney Place @ Bay 3,49.21945,-122.596908
10888,61061.0,Haney Place @ Bay 4,49.219453,-122.596658
10889,61060.0,Haney Place @ Bay 5,49.219508,-122.596543
1089,51080.0,Northbound Renfrew St @ E 16 Ave,49.255753,-123.044185
10890,61059.0,Haney Place @ Bay 6,49.2195,-122.596741
10891,61058.0,Haney Place @ Bay 7,49.219505,-122.597034
10892,61057.0,Haney Place @ Bay 8,49.219502,-122.597301
10893,57650.0,Westbound Dewdney  Trunk Rd @ 203 St,49.221514,-122.657617
10895,58953.0,Westbound E 10 Ave @ Kingsway,49.26203,-123.099601
10896,54918.0,Southbound Scott Rd @ 103A Ave,49.189504,-122.890486
10897,61048.0,Westbound 103A Ave @ Scott Rd,49.190713,-122.891384
10898,61049.0,Eastbound 103A Ave @ Grace Rd,49.190547,-122.892576
10899,61050.0,Westbound Grace Rd @ 103A Ave,49.190228,-122.893989
109,50109.0,Southbound Macdonald St @ W 6th Ave,49.266274,-123.168483
1090,51081.0,Northbound Renfrew St @ Grandview Hwy,49.257532,-123.044132
10901,56338.0,Southbound Cranley Dr @ Suffolk Rd,49.041661,-122.781829
10903,56337.0,Eastbound Cranley Dr @ 157A St,49.044326,-122.785455
10905,56339.0,Southbound Cranley Dr @ Cumbria Dr,49.04026,-122.780259
1091,51082.0,Renfrew Station @ Bay 3,49.259567,-123.044122
10914,58150.0,Scott Road Station @ Bay 3,49.204438,-122.874861
10916,58175.0,Guildford Exchange @ Bay 3,49.191357,-122.804448
10917,58253.0,Eastbound Anderson Rd @ Buswell St,49.163406,-123.134015
10918,61052.0,Eastbound Grace Rd @ 10200 Block,49.188663,-122.895558
1092,51083.0,Northbound Renfrew St @ E Broadway,49.262253,-123.044105
10921,59664.0,Joyce Station @ Bay 7,49.238723,-123.031266
10926,59803.0,VCC-Clark Station @ Bay 1,49.265986,-123.079816
10928,60859.0,Westbound Moscrop St @ Willingdon Ave,49.243038,-123.00393
10929,58322.0,22nd Street Station @ Unloading Only,49.199857,-122.949711
1093,51084.0,Northbound Renfrew St @ E 7th Ave,49.264174,-123.04414
1094,51085.0,Northbound Renfrew St @ E 5th Ave,49.266066,-123.044136
10944,58727.0,Stanley Park Loop @ Bay 1,49.300494,-123.133742
10947,54442.0,Eastbound Marine Dr @ 1000 Block,49.326813,-123.139026
10948,53104.0,Scott Road Station @ Bay 1,49.204326,-122.875671
1095,51086.0,Northbound Renfrew St @ E 3rd Ave,49.26794,-123.044107
10957,59586.0,Eastbound Halifax St @ Phillips Ave,49.267917,-122.948703
10958,51484.0,Eastbound W 16 Ave @ Wesbrook Mall,49.256014,-123.235156
10959,61043.0,Westbound W 16 Ave @ Wesbrook Mall,49.25626,-123.235061
1096,51087.0,Northbound Renfrew St @ E 1st Ave,49.269832,-123.044037
10960,61042.0,Eastbound W 16 Ave @ Wesbrook Mall,49.255111,-123.23773
10961,61044.0,Northbound Wesbrook Mall @ W 16 Ave,49.255309,-123.235823
10962,60720.0,Eastbound Indian River Dr @ Mt Seymour Rd,49.32131,-122.967914
10966,61126.0,Westbound W 16 Ave @ Granville St,49.25714,-123.139365
10967,61095.0,Eastbound Marpole Ave @ McRae Ave,49.257415,-123.137767
10968,61132.0,Westbound W 16 Ave @ Dunbar St,49.258064,-123.184836
10969,61088.0,Eastbound W 16 Ave @ Dunbar St,49.257785,-123.184606
1097,51088.0,Northbound Renfrew St @ Grant St,49.271682,-123.044039
10970,52442.0,Northbound 6th St @ 5th Ave,49.212012,-122.918751
10971,59314.0,Production Way Station @ Bay 1,49.253683,-122.918013
10972,59315.0,Production Way Station @ Bay 2,49.253798,-122.918198
10973,57588.0,Eastbound Dewdney Trunk Rd @ 202 St,49.221343,-122.659857
10976,61074.0,Southbound Main St @ Powell St,49.282713,-123.099741
10977,60870.0,Northbound Ferry Rd @ 5900 Block,49.109605,-123.078431
1098,51089.0,Northbound Renfrew St @ Charles St,49.273636,-123.044011
10980,50321.0,Eastbound W Broadway @ Larch St,49.263904,-123.16196
10982,61151.0,Southbound Windjammer Rd @ Captains Way Rd (Flag),49.369621,-123.423063
10983,61152.0,Northbound Windjammer Rd @ Captains Way Rd (Flag),49.369605,-123.422849
10984,61153.0,Westbound Adams Rd @ 1400 Block (Flag),49.359252,-123.395036
10986,61081.0,Westbound Grafton Rd @ Artisan Square (Flag),49.380591,-123.348916
10987,61082.0,Southbound Mt Gardner Rd @ Killarney Lake (Flag),49.388766,-123.35714
10988,61084.0,Northbound Miller Rd @ Deep Bay (Flag),49.386314,-123.337463
10989,61085.0,Southbound Miller Rd @ Deep Bay (Flag),49.386453,-123.337859
1099,51090.0,Northbound Renfrew St @ Venables St,49.276287,-123.043972
10990,61155.0,Westbound Grafton Rd @ 900 Block (Flag),49.37214,-123.362562
10991,61156.0,Eastbound Grafton Rd @ 900 Block (Flag),49.372008,-123.36208
10992,61157.0,Northbound Mt Gardner Rd @ Jones Rd (Flag),49.395748,-123.362859
10993,61158.0,Southbound Mt Gardner Rd @ Jones Rd (Flag),49.395711,-123.363022
10994,61159.0,Millers Landing @ 1200 Block (Flag),49.388426,-123.324435
10996,61161.0,Southbound Eagle Cliff Rd @ Upland Trail (Flag),49.399938,-123.320649
10997,61162.0,Northbound Eagle Cliff Rd @ Upland Trail (Flag),49.399891,-123.320499
10998,61078.0,Eastbound Oxford Connector @ 1900 Block,49.265107,-122.771589
10999,61083.0,Southbound Endswell Farm @ Smith Rd (Flag),49.401676,-123.365576
11,50011.0,Eastbound Davie St @ Howe St,49.27755,-123.126971
110,50110.0,Southbound Macdonald St @ W Broadway,49.264268,-123.168373
1100,51091.0,Northbound Renfrew St @ E Georgia St,49.278605,-123.043931
11001,52535.0,Eastbound Broadway @ E Ellerslie Ave,49.26148,-122.956905
11003,61219.0,Eastbound 84 Ave @ 108 St,49.155985,-122.922785
11007,61106.0,Eastbound E 33 Ave @ Knight St,49.240146,-123.075958
11009,61108.0,Eastbound E 33 Ave @ Victoria Dr,49.239826,-123.06484
11010,61104.0,Eastbound E 33 Ave @ Fraser St,49.240241,-123.089815
11011,61114.0,Westbound E 33 Ave @ Knight St,49.240276,-123.076877
11013,61093.0,Eastbound W 16 Ave @ East Blvd,49.257204,-123.15198
11014,61096.0,Eastbound W 16 Ave @ Oak St,49.256969,-123.127706
11015,61112.0,Westbound E 33 Ave @ Victoria Dr,49.240047,-123.064935
11016,61090.0,Eastbound W 16 Ave @ Macdonald St,49.257525,-123.167913
11019,61121.0,Westbound W 16 Ave @ Cambie St,49.257005,-123.11568
11020,61118.0,Westbound E 33 Ave @ Main St,49.240577,-123.101925
11021,61124.0,Westbound W 16 Ave @ Oak St,49.257181,-123.12688
11022,61116.0,Westbound E 33 Ave @ Fraser St,49.240373,-123.090765
11023,61128.0,Westbound W 16 Ave @ Arbutus St,49.257372,-123.153431
11025,60143.0,Eastbound Princess St @ Ditton St,49.205109,-122.65821
11026,59209.0,Eastbound 104 Ave @ 245 St,49.191259,-122.543079
11027,59157.0,Southbound 240 St @ 104 Ave,49.191681,-122.556945
11028,59158.0,Westbound 104 Ave @ 240 St,49.191399,-122.555849
11029,59159.0,Northbound 240 St @ 10600 Block,49.194563,-122.55666
1103,51094.0,Southbound Arbutus St @ W 12 Ave,49.260673,-123.153185
11032,59160.0,Southbound 240 St @ McClure Dr,49.196694,-122.556844
11033,59192.0,Eastbound 104 Ave @ 240 St,49.19129,-122.555714
11034,59206.0,Westbound 104 Ave @ 244 St,49.191378,-122.548252
11035,59207.0,Eastbound 104 Ave @ 244 St,49.191251,-122.547082
11038,61091.0,Eastbound W 16 Ave @ Trafalgar St,49.257427,-123.16452
11039,61089.0,Eastbound W 16 Ave @ Blenheim St,49.257689,-123.178434
1104,51095.0,Southbound Arbutus St @ W 14 Ave,49.258823,-123.153203
11040,61122.0,Westbound W 16 Ave @ Heather St,49.257062,-123.120455
11041,61129.0,Westbound W 16 Ave @ Vine St,49.257435,-123.15827
11042,61131.0,Westbound W 16 Ave @ Blenheim St,49.257961,-123.178447
11043,61127.0,Westbound W 16 Ave @ Burrard St,49.257239,-123.146565
11044,61130.0,Westbound W 16 Ave @ Trafalgar St,49.257758,-123.165382
11046,50589.0,Westbound W 4th Ave @ Collingwood St,49.268649,-123.182096
11047,61119.0,Westbound E 33 Ave @ Ontario St,49.240633,-123.105056
11048,61111.0,Westbound E 33 Ave @ Nanaimo St,49.239843,-123.059192
11049,61101.0,Eastbound E 33 Ave @ Ontario St,49.240505,-123.104966
1105,51096.0,Southbound Arbutus St @ W 16 Ave,49.256894,-123.153045
11050,61113.0,Westbound E 33 Ave @ Fleming St,49.240204,-123.071802
11051,61109.0,Eastbound E 33 Ave @ Nanaimo St,49.239712,-123.058302
11052,61107.0,Eastbound E 33 Ave @ Argyle St,49.240064,-123.070849
11057,61117.0,Westbound E 33 Ave @ Prince Edward St,49.240485,-123.097295
11058,61115.0,Westbound E 33 Ave @ Windsor St,49.240328,-123.085243
11059,61094.0,Eastbound W 16 Ave @ Burrard St,49.257121,-123.146366
1106,51097.0,Southbound Arbutus St @ W 19 Ave,49.255057,-123.153065
11060,61135.0,Eastbound E 33 Ave @ Inverness St,49.240161,-123.079787
11061,61134.0,Westbound E 33 Ave @ Inverness St,49.240296,-123.080645
11062,61103.0,Eastbound E 33 Ave @ Prince Edward St,49.240343,-123.096513
11063,61092.0,Eastbound W 16 Ave @ Vine St,49.25729,-123.157508
11064,61105.0,Eastbound E 33 Ave @ Somerville St,49.240204,-123.085349
11067,61125.0,Westbound W 15 Ave @ Birch St,49.257964,-123.134406
1107,51098.0,Southbound Arbutus St @ W 21 Ave,49.253174,-123.153131
11070,59713.0,Southbound 240 St @ 118 Ave,49.217262,-122.55709
11073,61237.0,Eastbound Miller Rd @ Aviation Ave,49.192111,-123.166629
11074,61171.0,Eastbound 64 Ave @ King George Blvd,49.118939,-122.84458
11075,61184.0,Westbound 64 Ave @ 152 St,49.119156,-122.801633
11076,61185.0,Eastbound 64 Ave @ 152 St,49.118971,-122.800293
11077,61197.0,Westbound 88 Ave @ King George Blvd,49.162839,-122.846907
11078,61198.0,Eastbound 88 Ave @ King George Blvd,49.162673,-122.844815
1108,51099.0,Southbound Arbutus St @ W King Edward Ave,49.251152,-123.153241
11085,59776.0,Northbound 227 St @ 122 Ave,49.225156,-122.593812
11088,58501.0,Broadway-City Hall Station @ Bay 4,49.263351,-123.11645
11089,61244.0,Eastbound Machrina Way @ Horseshoe Way,49.124879,-123.095713
11090,60122.0,Eastbound W 2nd St @ Bewicke Ave,49.318958,-123.091092
11091,60121.0,Westbound W 2nd St @ Bewicke Ave,49.319125,-123.091999
11092,51715.0,Southbound Rupert St @ E 24 Ave,49.248502,-123.033956
11093,51716.0,Southbound Rupert St @ E 26 Ave,49.246798,-123.033962
11094,61222.0,Southbound Tsawwassen Dr N @ Falcon Way,49.044149,-123.103979
11095,58129.0,Rupert Station @ Bay 2,49.26049,-123.033896
11097,50480.0,Northbound Cambie St @ W 14 Ave,49.258988,-123.114893
11099,61120.0,Westbound Midlothian Ave @ Clancy Loranger Way,49.243313,-123.109291
111,50111.0,Southbound Macdonald St @ W 11 Ave,49.261885,-123.16835
11100,61100.0,Eastbound Midlothian Ave @ Clancy Loranger Way,49.242588,-123.108805
11101,61149.0,Southbound Cambie St @ W 14 Ave,49.25846,-123.115193
11102,59740.0,Northbound Byrne Rd @ Marine Way,49.202444,-122.980895
11104,59816.0,Eastbound Government St @ Halston Court,49.247775,-122.906818
11107,61051.0,Westbound Grace Rd @ 10200 Block,49.188432,-122.896174
11108,61013.0,Northbound Shaughnessy St @ McAllister Ave,49.262582,-122.781227
11109,59098.0,Southbound Laity St @ 117 Ave,49.214859,-122.631998
1111,51102.0,Southbound Arbutus St @ Valley Dr,49.244919,-123.153466
11110,57661.0,Northbound Harris Rd @ 119 Ave,49.219437,-122.689445
11113,52095.0,Westbound W Broadway @ Macdonald St,49.264156,-123.167544
11114,58674.0,Southbound Coast Meridian Rd @ Robertson Ave,49.262435,-122.756225
11117,60000.0,Eastbound Davison Rd @ Harris Rd,49.227391,-122.688831
11118,61260.0,Spuraway Lodge (Flag),49.332349,-123.12048
11119,61073.0,Southbound Cambie St @ Robson St,49.277999,-123.115404
1112,51103.0,Southbound Arbutus St @ W 32 Ave,49.242695,-123.15359
11121,61163.0,Eastbound 64 Ave @ Scott Rd,49.119202,-122.889329
11122,61170.0,Westbound 64 Ave @ 128 St,49.119211,-122.868362
11123,61178.0,Westbound 64 Ave @ 144 St,49.11921,-122.823839
11124,61179.0,Eastbound 64 Ave @ 144 St,49.11903,-122.822749
11125,61188.0,Eastbound 64 Ave @ 202 St,49.118845,-122.662805
11126,58929.0,Southbound 204 St @ 64 Ave,49.118384,-122.65476
11127,61190.0,Westbound Nordel Way @ Scott Rd,49.162097,-122.891347
11128,59429.0,Westbound Nordel Way @ 116 St,49.161822,-122.903023
11129,59430.0,Eastbound Nordel Way @ 116 St,49.161581,-122.901189
1113,51104.0,Southbound Arbutus St @ W 35 Ave,49.239992,-123.155467
11130,61189.0,Eastbound Nordel Way @ Scott Rd,49.161878,-122.889466
11131,61191.0,Eastbound 88 Ave @ 128 St,49.16248,-122.867443
11132,61192.0,Westbound 88 Ave @ 128 St,49.1627,-122.868798
11133,61193.0,Eastbound 88 Ave @ 132 St,49.162559,-122.856225
11134,61194.0,Westbound 88 Ave @ 132 St,49.162721,-122.857787
11135,61201.0,Westbound 88 Ave @ 140 St,49.162869,-122.835189
11137,58258.0,Eastbound 88 Ave @ 160 St,49.162665,-122.778041
11138,61224.0,Northbound Tsawwassen Dr N @ 2100 Block,49.042229,-123.10061
11139,61166.0,Eastbound 64 Ave @ 124 St,49.119126,-122.878389
1114,51105.0,Southbound West Blvd @ W 37 Ave,49.23803,-123.155552
11140,61180.0,Eastbound 64 Ave @ 146 St,49.119039,-122.817258
11141,61165.0,Westbound 64 Ave @ 122 St,49.119374,-122.885001
11142,61164.0,Eastbound 64 Ave @ 122 St,49.119188,-122.884112
11143,61167.0,Westbound 64 Ave @ 124 St,49.119321,-122.87962
11144,61225.0,Southbound Tsawwassen Dr N @ 1900 Block,49.039498,-123.098063
11145,61182.0,Eastbound 64 Ave @ 148 St,49.119023,-122.811664
11147,61233.0,Northbound 52 St @ Spyglass Cres,49.032523,-123.079626
11148,61177.0,Eastbound 64 Ave @ 142 St,49.119015,-122.828345
11149,61232.0,Southbound 52 St @ Springs Blvd,49.031664,-123.079833
1115,51106.0,Southbound West Blvd @ W 39 Ave,49.236097,-123.155609
11150,61174.0,Eastbound 64 Ave @ 140 St,49.118983,-122.833824
11151,61223.0,Southbound Tsawwassen Dr N @ 2100 Block,49.04222,-123.100801
11153,61172.0,Eastbound 64 Ave @ 138 St,49.118962,-122.839451
11154,61226.0,Northbound Tsawwassen Dr N @ 1900 Block,49.039553,-123.097914
11155,61169.0,Westbound 64 Ave @ 126 St,49.119261,-122.873924
11156,61168.0,Eastbound 64 Ave @ 126 St,49.11907,-122.872796
11157,59134.0,Westbound 88 Ave @ 12300 Block,49.163321,-122.879546
11158,59135.0,Eastbound 88 Ave @ 12400 Block,49.163112,-122.878587
11159,59136.0,Westbound 88 Ave @ 12400 Block,49.16318,-122.876738
1116,51107.0,Southbound West Blvd @ W 41 Ave,49.234303,-123.155677
11160,59137.0,Eastbound 88 Ave @ 12500 Block,49.162923,-122.875631
11161,59138.0,Westbound 88 Ave @ 126 St,49.163008,-122.874051
11162,59139.0,Eastbound 88 Ave @ 126 St,49.162761,-122.873004
11163,60879.0,Westbound 88 Ave @ 130 St,49.162668,-122.862857
11164,60880.0,Eastbound 88 Ave @ 130 St,49.162537,-122.861926
11165,61196.0,Westbound 88 Ave @ 133A St,49.162762,-122.853323
11166,61195.0,Eastbound 88 Ave @ 133A St,49.162599,-122.852365
11167,61199.0,Westbound 88 Ave @ Lauder Dr,49.162859,-122.840254
11168,61200.0,Eastbound 88 Ave @ Bear Creek Park Access Rd,49.162674,-122.840568
11169,61204.0,Westbound 88 Ave @ 158 St,49.162846,-122.785836
1117,51108.0,Southbound West Blvd @ W 43 Ave,49.232443,-123.155746
11170,61203.0,Eastbound 88 Ave @ 158 St,49.162711,-122.784548
11171,58260.0,Westbound 88 Ave @ 162 St,49.162857,-122.773792
11172,58259.0,Eastbound 88 Ave @ 162 St,49.162709,-122.772688
11173,61206.0,Westbound 88 Ave @ 164 St,49.162892,-122.768302
11174,61183.0,Westbound 64 Ave @ 148 St,49.119209,-122.81291
11175,61181.0,Westbound 64 Ave @ 146 St,49.119209,-122.818379
11176,61176.0,Westbound 64 Ave @ 142 St,49.119192,-122.829275
11177,61175.0,Westbound 64 Ave @ 140 St,49.119172,-122.834752
11178,61173.0,Westbound 64 Ave @ 138 St,49.11915,-122.840539
11180,51720.0,Eastbound Wellington Ave @ McHardy St,49.241059,-123.032729
11181,51673.0,Westbound Wellington Ave @ McHardy St,49.241397,-123.033186
11182,51674.0,Northbound Rupert St @ Wellington Ave,49.242748,-123.035635
11183,51672.0,Westbound Wellington Ave @ Joyce St,49.240302,-123.030526
11184,51719.0,Eastbound Wellington Ave @ Rupert St,49.242237,-123.035603
11185,61262.0,Southbound On Jackson Rd @ 101 Ave (Flag),49.185533,-122.539793
11186,61263.0,Eastbound 100 Ave @ 24900 Block (Flag),49.183936,-122.53176
11187,61264.0,Eastbound 100 Ave @ 25300 Block (Flag),49.183928,-122.523166
11188,61265.0,Eastbound 100 Ave @ 25500 Block (Flag),49.183889,-122.513136
11189,61266.0,Eastbound 98 Ave @ 25800 Block (Flag),49.180279,-122.507126
11190,61267.0,Eastbound 98 Ave @ 26100 Block (Flag),49.180253,-122.497519
11191,61268.0,Eastbound 98 Ave @ 264 St,49.179048,-122.490194
11192,61259.0,Northbound Willingdon Ave @ Still Creek Dr,49.261653,-123.003137
11193,61258.0,Southbound Willingdon Ave @ Still Creek Dr,49.261672,-123.003477
11194,61009.0,Westbound Kingsway @ Marlborough Ave,49.226121,-122.992052
11196,61070.0,Capilano University @ Bay 2,49.319395,-123.018759
11198,53150.0,Eastbound St. Johns St @ Moray St,49.276599,-122.834269
11199,61071.0,Capilano University @ Bay 3,49.31939,-123.018631
112,50112.0,Southbound Macdonald St @ W 13 Ave,49.260158,-123.168427
1120,51111.0,Southbound Arbutus St @ W 49 Ave,49.226773,-123.155273
11200,61239.0,Northbound Lillooet Rd @ Purcell Way,49.31787,-123.023891
11202,56034.0,Northbound King George Blvd @ 156 St,49.043519,-122.790761
11204,52487.0,Eastbound 6th Ave @ 6th St,49.213373,-122.919768
11205,56165.0,Westbound Bayview St @ Beecher St,49.053934,-122.877081
11206,61285.0,Northbound 52 St @ 12 Ave,49.025614,-123.079669
11207,61235.0,Westbound Murray St @ Electronic Ave,49.278898,-122.841659
11208,56512.0,Southbound No. 1 Rd @ Steveston Hwy,49.133314,-123.181409
11209,61097.0,Eastbound W 16 Ave @ Willow St,49.256969,-123.121578
1121,51112.0,Eastbound W 51 Ave @ Arbutus St,49.224918,-123.154675
11211,50417.0,Southbound Cambie St @ W 20 Ave,49.252766,-123.115379
11214,59984.0,Eastbound Fraser Hwy @ 48 Ave,49.08981,-122.603095
11216,61252.0,Northbound Cambie St @ W 29 Ave,49.245537,-123.11525
11219,61274.0,Northbound Admiral Blvd @ Commodore Dr,49.106556,-123.074226
1122,51113.0,Southbound West Blvd @ W 53 Ave,49.222481,-123.1524
11220,51372.0,Eastbound W Pender St @ Jervis St,49.288846,-123.125208
11221,50412.0,Southbound Cambie St @ W 7th Ave,49.264477,-123.114982
11222,61275.0,Northbound Admiral Blvd @ Cove Reach Rd,49.109481,-123.072531
11223,61276.0,Northbound Admiral Blvd @ Cove Inlet Rd,49.110991,-123.072164
11224,61279.0,Southbound Ferry Rd @ 5900 Block,49.110197,-123.078514
11225,61277.0,Westbound Admiral Way @ 5300 Block,49.112018,-123.076321
11226,61280.0,Southbound Ferry Rd @ Windjammer Rd,49.106991,-123.079004
11227,50483.0,Northbound Cambie St @ W 7th Ave,49.264648,-123.114622
11229,61306.0,Coquitlam Central Station @ Bay 13,49.274886,-122.79928
11230,61211.0,Westbound 96 Ave @ 201 St,49.177082,-122.66547
11232,61310.0,Southbound 196 St @ Fraser Hwy,49.113418,-122.680068
11233,61316.0,Northbound Hwy 99 Onramp @ Seascape Dr,49.398198,-123.247558
11235,61318.0,Southbound Hwy 99 @ Ocean Point Dr,49.43045,-123.23386
11236,61319.0,Southbound Hwy 99 @ Strachan Point Rd,49.420432,-123.232905
11237,61313.0,Northbound East Rd @ Strong Rd,49.306379,-122.840343
11238,61314.0,Southbound East Rd @ Strong Rd,49.306399,-122.840471
11239,61311.0,Southbound East Rd @ Wyndham Cres,49.310197,-122.843823
1124,51115.0,Southbound West Blvd @ W 60 Ave,49.216794,-123.149023
11240,61309.0,Eastbound 60 Ave @ 192 St,49.111237,-122.689257
11241,61312.0,Northbound East Rd @ Wyndham Cres,49.309844,-122.843398
11242,61297.0,Northbound Cessna Dr @ 3800 Block,49.18603,-123.144086
11243,61334.0,Richmond-Brighouse Station @ Bay 4,49.168512,-123.136367
11245,61295.0,Northbound 232 St @ Fern Cres,49.240725,-122.579556
11246,61326.0,Bridgeport Station @ Bay 7,49.195053,-123.127304
11247,61332.0,Richmond-Brighouse Station @ Bay 6,49.168747,-123.13555
11248,61324.0,Bridgeport Station @ Bay 4,49.195114,-123.126817
11249,61273.0,Eastbound Dominion Ave @ Archbishop Carney Secondary,49.258342,-122.749997
11250,61323.0,Bridgeport Station @ Bay 3,49.195229,-123.126551
11251,61337.0,Marine Drive Station @ Bay 1,49.209087,-123.116823
11252,61338.0,Marine Drive Station @ Bay 2,49.209383,-123.116116
11253,61329.0,Bridgeport Station @ Bay 10,49.195366,-123.126635
11254,56475.0,Southbound Garden City Rd @ Westminster Hwy,49.169628,-123.124772
11255,61344.0,Westbound River Rd @ Hollybridge Way,49.173922,-123.150998
11256,61325.0,Bridgeport Station @ Bay 5,49.195004,-123.127081
11258,61254.0,Olympic Village Station @ Bay 3,49.265937,-123.116053
11259,59845.0,Southbound Ioco Rd @ Suter Brook Way,49.278865,-122.82742
1126,51117.0,Southbound Angus Dr @ W 63 Ave,49.2139,-123.148557
11260,61040.0,Olympic Village Station @ Bay 1,49.266245,-123.115944
11261,61336.0,Eastbound Larson Rd @ Fir St,49.325675,-123.088428
11262,61360.0,Southbound Oak St @ W 72 Ave,49.205381,-123.130464
11263,54023.0,Southbound Grand Blvd East @ E 9th St,49.315354,-123.056611
11264,61296.0,Westbound 64 Ave @ 203 St,49.119029,-122.660877
11265,61359.0,Northbound 201 St @ 96 Ave,49.177479,-122.664276
11266,61327.0,Bridgeport Station @ Bay 8,49.195144,-123.127071
11267,61328.0,Bridgeport Station @ Bay 9,49.195246,-123.126904
11268,61330.0,Bridgeport Station @ Bay 11,49.195565,-123.126212
11269,61331.0,Bridgeport Station @ Bay 12,49.195652,-123.125982
1127,51118.0,Eastbound W 64 Ave @ East Blvd,49.213182,-123.146293
11270,61321.0,Bridgeport Station @ Bay 1 Unloading Only,49.195515,-123.125911
1128,51119.0,Northbound Adera St @ W 64 Ave,49.213522,-123.143433
1129,51120.0,Marpole Loop @ Bay 2,49.20325,-123.132871
113,50113.0,Southbound Macdonald St @ W 16 Ave,49.257261,-123.168508
1130,51121.0,Eastbound E 41 Ave @ Victoria Dr,49.232713,-123.06505
11305,61396.0,Southbound 232 St @ Fern Cres,49.24101,-122.579718
11306,61353.0,Northbound 224 St @ 12200 Block,49.225496,-122.601234
11307,53212.0,Southbound North Rd @ Cameron St,49.252969,-122.893126
11308,59903.0,Northbound Ioco Rd @ Suter Brook Way,49.2797,-122.82696
1131,51122.0,Eastbound E 41 Ave @ Gladstone St,49.232817,-123.06167
11310,50023.0,Yaletown-Roundhouse Station @ Bay 1,49.274863,-123.122521
11311,61215.0,Yaletown-Roundhouse Station @ Bay 2,49.274278,-123.121876
11312,60854.0,Southbound 200 St @ 82 Ave,49.151339,-122.668413
11313,55397.0,Northbound King George Blvd @ 44 Ave,49.082361,-122.820319
11318,61291.0,Westbound Lougheed Hwy @ Dominion Ave,49.258332,-122.753993
1132,51123.0,Eastbound E 41 Ave @ Nanaimo St,49.232788,-123.058373
11321,58089.0,Westbound Burke St @ Smith Ave,49.23703,-123.020478
11322,58090.0,Southbound Smith Ave @ Belleville Ave,49.239663,-123.019922
11323,58088.0,Southbound Smith Ave @ Moscrop St,49.242674,-123.019874
11324,51728.0,Northbound Smith Ave @ Price St,49.240426,-123.019753
11325,51727.0,Northbound Smith Ave @ Brandon St,49.23903,-123.019776
11327,61302.0,Westbound Indian River Dr @ Mt Seymour Rd,49.321443,-122.968697
11328,51726.0,Northbound Smith Ave @ Burke St,49.237291,-123.019798
11329,60717.0,Eastbound Fraser Hwy @ 19000 Block,49.120824,-122.69564
1133,51124.0,Eastbound E 41 Ave @ Clarendon St,49.232754,-123.054813
11330,56197.0,Westbound Marine Dr @ Balsam St,49.017925,-122.794242
11331,59085.0,Eastbound Fraser Hwy @ 64 Ave,49.118438,-122.690508
11332,59086.0,Westbound Fraser Hwy @ 64 Ave,49.119471,-122.692199
11333,51725.0,Eastbound Burke St @ Boundary Rd,49.236949,-123.022912
11337,50085.0,Yaletown-Roundhouse Station @ Bay 3,49.27402,-123.121945
1134,51125.0,Eastbound E 41 Ave @ Wales St,49.232722,-123.051214
11341,51919.0,Westbound NW Marine Dr @ Cecil Green Park Rd,49.270517,-123.255442
11349,50999.0,Langara-49th Station @ Bay 1,49.226473,-123.116241
1135,51126.0,Eastbound E 41 Ave @ Earles St,49.232715,-123.04831
11354,61281.0,Oakridge-41st Ave Station  @ Bay 4,49.233712,-123.117599
11357,50875.0,Broadway-City Hall Station @ Bay 1,49.263107,-123.114283
1136,51127.0,Eastbound E 41 Ave @ Killarney St,49.232892,-123.045427
11361,61416.0,Westbound 68 Ave @ 194 St,49.126433,-122.686138
11363,61419.0,Northbound Renaissance Square @ Quayside Dr,49.199988,-122.924574
11364,61401.0,Southbound Johnston Rd @ Buena Vista Ave,49.024089,-122.801225
11365,61414.0,Eastbound 68 Ave @ 192 St,49.126318,-122.690377
11367,54382.0,Westbound Marine Dr @ Hamilton Ave,49.323076,-123.0996
11368,61347.0,Southbound Minoru Blvd @ Westminster Hwy,49.169554,-123.140355
1137,51128.0,Eastbound E 41 Ave @ Rupert St,49.23288,-123.042556
11374,61349.0,Southbound Minoru Blvd @ Minoru Gate,49.16465,-123.140684
11375,61342.0,Westbound Elmbridge Way @ Alderbridge Way,49.172095,-123.144162
11377,61346.0,Southbound Lynas Lane @ Dover Cres,49.171509,-123.164587
11379,61341.0,Westbound Elmbridge Way @ Minoru Blvd,49.172083,-123.141228
1138,51129.0,Eastbound E 41 Ave @ Kerr St,49.232892,-123.039828
11380,60283.0,Southbound No. 3 Rd @ Yaohan Access Rd,49.185927,-123.135488
11381,56551.0,Northbound No. 3 Rd @ Leslie Rd,49.180026,-123.136477
11382,61348.0,Southbound Minoru Blvd @ Murdoch Ave,49.166706,-123.141002
11384,61335.0,Westbound Anderson Rd @ Buswell St,49.163531,-123.134652
11385,56452.0,Northbound No. 3 Rd @ Saba Rd,49.169358,-123.136381
11386,60284.0,Northbound No. 3 Rd @ Yaohan Access Rd,49.186808,-123.1343
11387,56453.0,Northbound No. 3 Rd @ Ackroyd Rd,49.17237,-123.136488
11388,58196.0,Lansdowne Station @ Bay 1,49.174387,-123.136617
1139,51130.0,Eastbound E 41 Ave @ School Ave,49.233197,-123.036985
11392,52340.0,Southbound Cliveden Ave @ 1600 Block,49.162461,-122.972288
11393,56481.0,Westbound Westminster Hwy @ No. 3 Rd,49.170303,-123.137351
11398,52080.0,Northbound Garden City Rd @ Westminster Hwy,49.170599,-123.124413
114,50114.0,Westbound W 16 Ave @ Macdonald St,49.257816,-123.168896
11401,59923.0,Westbound Keefer Place @ Taylor St,49.279581,-123.106439
11402,53264.0,Eastbound Ungless Way @ Ioco Rd,49.28425,-122.827325
11403,54826.0,Northbound Granville St @ W 10 Ave,49.2631,-123.138458
11405,53687.0,Westbound McLean Ave @ Kingsway Ave,49.253348,-122.765179
11407,60331.0,Eastbound David Ave @ Pinetree Way,49.293831,-122.789324
11408,59482.0,Southbound Broadway St @ Kingsway Ave,49.252057,-122.76242
11409,56550.0,Northbound No. 3 Rd @ Alderbridge Way,49.177735,-123.136489
11410,61445.0,Westbound Brunswick Rd @ Hwy 99 Overpass,49.474111,-123.242087
11411,61443.0,Eastbound Cambie Rd @ Hazelbridge Way,49.184607,-123.13351
11412,61444.0,Westbound Progress Way @ Venture St,49.133691,-123.02195
11414,61446.0,Northbound 200 St @ 7800 Block,49.14587,-122.667983
11421,54882.0,Northbound 120 St @ Boundary Park Gate,49.113367,-122.890245
11422,61453.0,Westbound W Broadway @ Arbutus St,49.263948,-123.154464
11426,58593.0,Northbound Granville St @ Drake St,49.276487,-123.127092
11427,50535.0,Southbound Granville St @ Davie St,49.276786,-123.126905
11429,50220.0,Northbound Granville St @ Davie St,49.277584,-123.125372
1143,51134.0,Eastbound Kingsway @ E Broadway,49.262551,-123.099412
11431,61439.0,Southbound Bonson Rd @ Aljumaili Ave,49.210159,-122.678408
11432,61440.0,Southbound Bonson Rd @ Bruce Dr,49.206702,-122.678412
11433,61441.0,Southbound Bonson Rd @ Hoffmann Way,49.204363,-122.678366
11434,61442.0,Eastbound Fraser Way @ Bay Mill Rd,49.202814,-122.679862
11438,51374.0,Eastbound W Hastings St @ Granville St,49.285445,-123.11425
11439,59907.0,Southbound Lougheed Hwy @ 116 Ave,49.212039,-122.586191
1144,51135.0,Eastbound Kingsway @ E 12 Ave,49.260192,-123.097102
11441,50978.0,Westbound W Hastings St @ Granville St,49.285242,-123.113584
11443,53005.0,Eastbound Como Lake Ave @ Gatensbury St,49.263413,-122.857007
11444,53008.0,Eastbound Como Lake Ave @ Poirier St,49.263329,-122.846029
1145,51136.0,Eastbound Kingsway @ E 13 Ave,49.258948,-123.095429
11450,52538.0,Southbound Bainbridge Ave @ Lougheed Hwy,49.258921,-122.956096
11451,52539.0,Westbound Lougheed Hwy @ Bainbridge Ave,49.258862,-122.956938
11458,61482.0,Southbound 54 St @ 2nd Ave,49.006584,-123.074177
1146,51137.0,Eastbound Kingsway @ Carolina St,49.257418,-123.092371
1147,51138.0,Eastbound Kingsway @ Fraser St,49.256214,-123.089018
11470,56450.0,Southbound No. 3 Rd @ Westminster Hwy,49.169765,-123.136665
11471,56454.0,Lansdowne Station @ Bay 2,49.173763,-123.135822
11473,51941.0,Northbound Burrard St @ W 3rd Ave,49.269179,-123.145428
11474,50533.0,Southbound Granville St @ Nelson St,49.278877,-123.123712
11477,50611.0,Eastbound Robson St @ Bidwell St,49.29023,-123.133644
11481,50624.0,Westbound Robson St @ Burrard St,49.283556,-123.123086
11482,50625.0,Westbound Robson St @ Thurlow St,49.28483,-123.125037
11484,50627.0,Westbound Robson St @ Broughton St,49.288152,-123.130152
11485,50628.0,Westbound Robson St @ Cardero St,49.289693,-123.132542
11486,50605.0,Westbound University Blvd @ Allison Rd,49.266846,-123.24331
11487,61497.0,Northbound 157A St @ 10900 Block,49.200713,-122.785073
11489,61288.0,Southbound 160 St @ 108 Ave,49.19845,-122.778802
1149,51140.0,Eastbound Kingsway @ Glen Dr,49.252628,-123.081356
11490,61494.0,Northbound 156 St @ 104 Ave,49.192019,-122.789624
11491,61496.0,Eastbound 108 Ave @ 158 St,49.198763,-122.78323
11492,61493.0,Southbound 156 St @ 108 Ave,49.198434,-122.789854
11493,61491.0,Westbound 110 Ave @ 157 St,49.202377,-122.786447
11494,61492.0,Southbound 156 St @ 110 Ave,49.202113,-122.789933
11495,59991.0,Westbound Expo Blvd @ Abbott St,49.278791,-123.108015
11496,61499.0,Eastbound Churchill St @ Athabaska St,49.082271,-123.009464
11497,61498.0,Westbound Churchill St @ Athabaska St,49.08237,-123.010562
11499,51480.0,Southbound Wesbrook Mall @ Thunderbird Blvd,49.260754,-123.240994
115,50115.0,Westbound W 16 Ave @ Mackenzie St,49.257845,-123.170847
1150,51141.0,Eastbound Kingsway @ Clark Dr,49.250834,-123.077633
11500,61150.0,Eastbound E 33 Ave @ Main St,49.240435,-123.101853
11502,59919.0,Northbound Pat Quinn Way @ Pacific Blvd,49.277432,-123.107546
11508,61284.0,Eastbound East Rd @ 2300 Block,49.314479,-122.848991
11509,61283.0,Westbound East Rd @ 2400 Block,49.314596,-122.850069
1151,51142.0,Eastbound Kingsway @ Knight St,49.249736,-123.075484
11514,61247.0,Eastbound 102 Ave @ 242B St,49.187397,-122.550454
11519,52733.0,Southbound Gilmore Way @ Canada Way,49.254132,-123.010837
1152,51143.0,Eastbound Kingsway @ Dumfries St,49.24866,-123.072988
11520,56921.0,Westbound Westminster Hwy @ McLean Ave,49.173647,-122.970671
11521,50822.0,Northbound Fraser St @ E 60 Ave,49.215947,-123.090881
11522,61292.0,Southbound Granville St @ Robson St,49.28172,-123.119373
11523,61293.0,Northbound Granville St @ W Georgia St,49.282317,-123.118291
11524,60980.0,Southbound Granville St @ W Georgia St,49.28266,-123.117951
11525,60993.0,Northbound Granville St @ Dunsmuir St,49.283461,-123.116549
11526,50526.0,Southbound Granville St @ W Pender St,49.284039,-123.115939
11527,50034.0,Northbound Granville St @ W Hastings St,49.285553,-123.11335
11529,61518.0,Westbound E Pender St @ Main St,49.280462,-123.100263
1153,51144.0,Eastbound Kingsway @ Perry St,49.247719,-123.070924
11532,58144.0,Northbound Granville St @ Smithe St,49.280784,-123.120537
11534,59558.0,Westbound Dunsmuir St @ Cambie St,49.280837,-123.112004
11535,61519.0,Northbound Seymour St @ Dunsmuir St,49.282782,-123.115596
11538,61250.0,Southbound Ross Dr @ 200 Block,49.213958,-122.899656
11539,61251.0,Northbound Ross Dr @ 200 Block,49.214217,-122.899827
1154,51145.0,Eastbound Kingsway @ Commercial St,49.246508,-123.068314
11540,61521.0,Westbound Westminster Hwy @ Garden City Rd,49.170215,-123.125653
11541,51114.0,Southbound West Blvd @ W 57 Ave,49.219164,-123.150433
11542,61522.0,Southbound Howe St @ Davie St,49.278166,-123.126768
11543,53331.0,Northbound Laurentian Cres @ Austin Ave,49.248581,-122.843968
11544,61526.0,Northbound No. 3 Rd @ Jones Rd,49.157771,-123.136495
11545,56113.0,Eastbound Thrift Ave @ Foster St,49.027511,-122.803368
11546,61528.0,Northbound Hwy 99 Onramp @ Kelvin Grove Way,49.452388,-123.236624
11547,61527.0,Northbound Horseshoe Bay Dr @ Pasco Rd,49.38635,-123.25838
11548,61531.0,Southbound Isleview Place @ Lions Bay Ave,49.458538,-123.236819
11549,61530.0,Northbound Crosscreek Rd @ Oceanview Rd,49.459217,-123.235617
11551,53390.0,Westbound Lougheed Hwy @ 500 Block,49.243693,-122.888382
11552,53388.0,Westbound Lougheed Hwy @ 700 Block,49.23835,-122.878382
11553,54828.0,Southbound Howe St @ W Pender St,49.284791,-123.116768
11556,61294.0,Eastbound David Ave @ Genest Way,49.292774,-122.785177
11557,61361.0,Westbound David Ave @ Genest Way,49.292973,-122.785615
11559,59796.0,Pitt Meadows Station @ Bay 1,49.225691,-122.688711
1156,51147.0,Eastbound Kingsway @ Earles St,49.23728,-123.048397
11563,58721.0,Southbound Burrard St @ Burnaby St,49.278573,-123.130164
11564,59120.0,Westbound Horseshoe Way @ 12300 Block,49.122709,-123.096987
11567,53671.0,Eastbound Lougheed Hwy @ King Edward St,49.23406,-122.860509
11568,60781.0,Westbound 57 Ave @ 177B St,49.106067,-122.730864
1157,51148.0,Eastbound Kingsway @ Killarney St,49.236159,-123.045333
11572,61536.0,Eastbound Bedwell Bay Rd @ Midden Rd,49.313465,-122.923185
11573,59786.0,Northbound Pitt River Rd @ Pooley Ave,49.244874,-122.77348
11574,61538.0,Eastbound 24 Ave @ Croydon Dr,49.045456,-122.782014
11576,61542.0,Northbound 194 St @ 66 Ave,49.124011,-122.685224
11577,61543.0,Southbound 194 St @ 66 Ave,49.123365,-122.685416
11578,61541.0,Northbound 194 St @ 64 Ave,49.119498,-122.685263
11579,61552.0,Eastbound McLean Ave @ Kingsway Ave,49.253237,-122.764961
1158,51149.0,Eastbound Kingsway @ Rupert St,49.235786,-123.041963
11580,61540.0,Southbound 194 St @ 68 Ave,49.125636,-122.685414
11581,61420.0,Westbound North Fraser Way @ 5100 Block,49.199471,-123.001482
11582,61421.0,Eastbound North Fraser Way @ 5100 Block,49.199096,-123.000877
11583,61555.0,Eastbound 24 Ave @ 157 St,49.04548,-122.78672
11585,54480.0,Northbound Capilano Rd @ W 21 St,49.32935,-123.117663
11587,61554.0,Eastbound Harrison Dr @ Victoria Dr,49.210486,-123.065448
11588,52102.0,Commercial-Broadway Station @ Bay 1,49.262213,-123.068963
11589,52094.0,Commercial-Broadway Station @ Bay 4,49.262426,-123.069432
1159,51150.0,Eastbound Kingsway @ McKinnon St,49.234792,-123.037515
11591,61205.0,Eastbound 88 Ave @ 164 St,49.162744,-122.767094
11592,61202.0,Eastbound 88 Ave @ 156 St,49.162727,-122.789547
11593,60771.0,Southbound 188 St @ Fraser Hwy,49.123019,-122.70188
11594,54332.0,Eastbound Main St @ Lynn Ave,49.306304,-123.036502
11595,59111.0,Westbound Main St @ Harbour Ave,49.306096,-123.034951
11596,50878.0,Eastbound E Broadway @ Ontario St,49.262911,-123.104471
11597,53958.0,Westbound Cotton Rd @ Brooksbank Ave,49.30749,-123.04116
11598,53955.0,Eastbound Cotton Rd @ Brooksbank Ave,49.307195,-123.040888
116,50116.0,Westbound W 16 Ave @ Balaclava St,49.257904,-123.174638
1160,51151.0,Eastbound Kingsway @ Joyce St,49.233641,-123.035167
11600,54329.0,Southbound Brooksbank Ave @ E Keith Rd,49.312833,-123.040448
11602,54331.0,Southbound Brooksbank Ave @ E 3rd St,49.308077,-123.040574
11603,54330.0,Southbound Brooksbank Ave @ E 4th St,49.309636,-123.04053
11604,54334.0,Northbound Brooksbank Ave @ E 3rd St,49.308549,-123.040349
11605,54335.0,Northbound Brooksbank Ave @ E 5th St,49.310559,-123.040304
11606,50913.0,Commercial-Broadway Station @ Bay 5,49.262416,-123.06875
11608,61477.0,Westbound Steveston Hwy @ Coppersmith Place,49.133456,-123.096357
11609,61551.0,Eastbound 60 Ave @ Enterprise Way,49.11122,-122.685449
1161,51152.0,Eastbound Kingsway @ Wessex St,49.232943,-123.033767
11610,59434.0,Westbound E 49 Ave @ Vivian St,49.224856,-123.050858
11611,60758.0,Eastbound 72 Ave @ 190 St,49.133542,-122.695491
11612,60768.0,Westbound 72 Ave @ 190 St,49.133647,-122.696881
11613,61558.0,Westbound Westminster Hwy @ Hwy 91 Offramp,49.168577,-122.976893
11614,51380.0,Eastbound Hastings St @ Madison Ave,49.280948,-123.008143
11615,59128.0,Westbound Canada Way @ Smith Ave,49.254781,-123.021521
11616,58313.0,Northbound Granville St @ W Pender St,49.284493,-123.114994
11618,61561.0,Westbound 96 Ave @ 198 St,49.177126,-122.674441
11619,59129.0,Northbound Smith Ave @ Linwood St,49.253539,-123.019687
1162,51153.0,Eastbound Kingsway @ Tyne St,49.231987,-123.031656
11622,50714.0,Westbound E 41st Ave @ Main St,49.233193,-123.101267
11623,61110.0,Southbound Slocan St @ Kingsway,49.240272,-123.053886
11627,61570.0,Westbound Nordel Way @ Shepherd Way,49.161565,-122.918523
11628,61568.0,Eastbound Nordel Way @ Brooke Rd,49.160605,-122.920855
11629,61569.0,Westbound Nordel Way @ Brooke Rd,49.160274,-122.922146
1163,51154.0,Eastbound Kingsway @ Melbourne St,49.231961,-123.028846
11630,61571.0,Eastbound Nordel Way @ Shepherd Way,49.161813,-122.914927
11636,58235.0,Southbound Abbott St @ W Pender St,49.28074,-123.107725
11637,52441.0,Northbound 6th St @ 4th Ave,49.210454,-122.9168
11638,50094.0,Westbound W Pender St @ Hamilton St,49.282472,-123.11137
11639,61510.0,Northbound Capilano Rd @ Curling Rd,49.325441,-123.121059
1164,51155.0,Eastbound Kingsway @ Lincoln St,49.232088,-123.026055
11641,59990.0,Northbound Capilano Rd @ Fullerton Ave,49.326787,-123.119438
11642,53636.0,Eastbound United Blvd @ Brigantine Dr,49.22879,-122.847955
11643,51473.0,Westbound W Pender St @ Broughton St,49.289741,-123.12775
11644,58154.0,Southbound No. 3 Rd @ Browngate Rd,49.182379,-123.136778
11645,61563.0,Westbound Marine Dr @ Capilano Rd,49.324577,-123.122926
11646,53392.0,Westbound W Hastings St @ Abbott St,49.282004,-123.10684
1165,51156.0,Eastbound Kingsway @ Boundary Rd,49.232257,-123.022286
11651,53384.0,Westbound Brunette Ave @ Marmont St,49.23874,-122.862739
11653,61452.0,Westbound Lougheed Hwy @ Old Dewdney Trunk Rd,49.24395,-122.720621
11654,61595.0,Westbound Lougheed Hwy @ Sherling Ave,49.253669,-122.742982
11655,59809.0,Northbound Citadel Dr @ O'Flaherty Gate,49.23189,-122.793288
1166,51157.0,Eastbound Kingsway @ Smith Ave,49.232578,-123.018383
11664,61597.0,Guildford Exchange @ Bay 4,49.193248,-122.80216
11666,50615.0,Eastbound Robson St @ Thurlow St,49.284394,-123.124658
1167,51158.0,Eastbound Kingsway @ Inman Ave,49.232758,-123.015229
11673,61566.0,Eastbound Marine Dr Offramp @ Lions Gate Bridge,49.325824,-123.129537
11674,61609.0,Joyce Station @ Bay 5,49.238127,-123.031478
11676,54471.0,Southbound Lions Gate Bridge Onramp @ Marine Dr,49.326637,-123.128681
11678,54429.0,Westbound Marine Dr @ Lloyd Ave,49.323931,-123.105534
11679,61610.0,Eastbound Como Lake Ave @ Robinson St,49.263527,-122.880581
1168,51159.0,Eastbound Kingsway @ Patterson Ave,49.232443,-123.012252
11680,61573.0,Westbound North Fraser Way @ 4300 Block,49.20024,-123.005536
11681,61612.0,Southbound Howes St @ Hwy 91A Offramp,49.187052,-122.947624
11682,61599.0,Westbound 6th Ave @ 8th St,49.211448,-122.923688
11683,58244.0,Southbound No. 4 Rd @ Odlin Rd,49.181509,-123.11413
11684,61617.0,Westbound United Blvd @ King Edward St,49.230572,-122.859594
11685,61613.0,Eastbound Lougheed Hwy @ Woolridge Connector,49.234857,-122.864253
11686,61619.0,Eastbound 96 Ave @ 168 St,49.176937,-122.755946
11687,61620.0,Eastbound 96 Ave @ 172 St,49.176935,-122.745267
11688,61622.0,Eastbound 96 Ave @ 173A St,49.176933,-122.740806
11689,61621.0,Westbound 96 Ave @ 172 St,49.177145,-122.74656
1169,51160.0,Eastbound Kingsway @ Olive Ave,49.231667,-123.00953
11690,61623.0,Westbound 96 Ave @ 173A St,49.177143,-122.742181
11691,61618.0,Westbound River Rd @ 8800 Block,49.153728,-122.97802
11692,61624.0,Southbound 144 St @ 68B Ave,49.127257,-122.823409
11693,61625.0,Southbound 144 St @ 67A Ave,49.124838,-122.823411
11694,53699.0,Southbound Broadway St @ Langan Ave,49.249867,-122.762534
11695,61099.0,Eastbound E 29 Ave @ Cambie St,49.245108,-123.114568
11697,52751.0,Eastbound Lougheed Hwy @ Beta Ave,49.266048,-122.996995
11698,61645.0,Southbound Elliott St @ E 54 Ave,49.220551,-123.054963
11699,61628.0,Northbound 140 St @ 100 Ave,49.184659,-122.834043
1170,51161.0,Eastbound Kingsway @ Wilson Ave,49.230995,-123.007485
11701,61647.0,Southbound 123A St @ 96 Ave,49.177565,-122.880597
11704,61629.0,White Rock Centre @ Bay 9,49.033307,-122.801052
11705,61614.0,Westbound 96 Ave @ 176 St,49.176898,-122.735989
11706,61031.0,Westbound W Georgia St @ Granville St,49.282879,-123.118524
11707,58624.0,Richmond-Brighouse Station @ Bay 5,49.168435,-123.136682
11708,54406.0,Southbound Lloyd Ave @ W 17 St,49.32437,-123.105025
1171,51162.0,Southbound Willingdon Ave @ Kemp St,49.229565,-123.005715
11710,61657.0,New Westminster Station @ Bay 10,49.201085,-122.914339
11712,61656.0,New Westminster Station @ Bay 9,49.201472,-122.911997
11713,61650.0,New Westminster Station @ Bay 3,49.200804,-122.912513
11714,61649.0,New Westminster Station @ Bay 2,49.201037,-122.912095
11715,61651.0,New Westminster Station @ Bay 4,49.20088,-122.912854
11716,61652.0,New Westminster Station @ Bay 5,49.20106,-122.913116
11718,61654.0,New Westminster Station @ Bay 7,49.201379,-122.913535
11719,61655.0,New Westminster Station @ Bay 8,49.201571,-122.91343
1172,51163.0,Eastbound Central Blvd @ Willingdon Ave,49.227271,-123.006974
11720,61659.0,Southbound University Dr @ 107A Ave,49.197107,-122.851009
11721,61658.0,Northbound University Dr @ 107A Ave,49.197675,-122.85073
11722,61567.0,Eastbound Fraser Hwy @ 248 St,49.069471,-122.537577
11723,54436.0,Westbound Marine Dr @ Bridgman Ave,49.323979,-123.11116
11724,61660.0,Eastbound W Broadway @ Yew St,49.263761,-123.154831
11725,55425.0,Northbound King George Blvd @ 94A Ave,49.175231,-122.845616
11726,61583.0,Eastbound W 3rd St @ Mission Rd,49.318001,-123.087729
11727,61582.0,Westbound W 3rd St @ Mission Rd,49.318364,-123.088085
11729,61666.0,Eastbound 3rd Ave @ 6500 Block,49.008379,-123.042847
1173,51164.0,Metrotown Station @ Bay 2,49.226085,-123.002888
11732,61600.0,Eastbound 12 Ave @ 6th St,49.220672,-122.929105
11734,61672.0,Eastbound 24 Ave @ 154 St,49.045508,-122.795077
11735,61673.0,Westbound 24 Ave @ King George Blvd,49.045693,-122.794792
11736,61631.0,Eastbound 24 Ave @ 160 St,49.045452,-122.778308
11737,61674.0,Westbound 24 Ave @ Croydon Dr,49.045669,-122.783338
11738,61635.0,Eastbound 24 Ave @ 164 St,49.045537,-122.76737
11739,61630.0,Westbound 24 Ave @ 160 St,49.045649,-122.779859
1174,51165.0,Northbound Willingdon Ave @ Central Blvd,49.228005,-123.007012
11740,61632.0,Westbound 24 Ave @ 161A St,49.045669,-122.775851
11741,61634.0,Westbound 24 Ave @ 164 St,49.045695,-122.768899
11742,61636.0,Westbound 24 Ave @ 168 St,49.045761,-122.757816
11743,61637.0,Eastbound 24 Ave @ 168 St,49.045595,-122.756255
11744,61639.0,Northbound 192 St @ 24 Ave,49.04613,-122.691326
11745,61638.0,Westbound 24 Ave @ 192 St,49.045753,-122.692166
11746,61641.0,Northbound 192 St @ 26 Ave,49.04959,-122.691368
11747,61640.0,Southbound 192 St @ 26 Ave,49.048942,-122.691575
1175,51166.0,Westbound Kingsway @ Willingdon Ave,49.230542,-123.00553
11750,61642.0,Southbound 192 St @ 28 Ave,49.052486,-122.691608
11751,61664.0,Southbound 192 St @ 32 Ave,49.059741,-122.691638
11754,61668.0,Northbound 198 St @ 64 Ave,49.118307,-122.67461
11755,56380.0,Eastbound 24 Ave @ 152 St,49.045525,-122.800528
11756,56358.0,Westbound 24 Ave @ 153 St,49.045701,-122.798085
11757,56347.0,Westbound 24 Ave @ 156 St,49.045676,-122.790735
11758,61581.0,Southbound Wesbrook Mall @ Triumf Centre,49.247646,-123.232002
11759,61579.0,Southbound Wesbrook Mall @ Birney Ave,49.254064,-123.23498
1176,51167.0,Westbound Kingsway @ Wilson Ave,49.231423,-123.008159
11760,61580.0,Northbound Wesbrook Mall @ Birney Ave,49.254485,-123.235195
11763,61430.0,Bridgeport Station @ Bay 13,49.195649,-123.125757
11764,61677.0,Surrey Central Station @ Bay 5A,49.189461,-122.849708
11765,61678.0,New Westminster Station @ Unloading Only,49.200807,-122.912785
11766,51869.0,Westbound Hastings St @ Cliff Ave,49.280434,-122.959531
11769,61681.0,Westbound Churchill St @ 80 St,49.080954,-123.002068
1177,51168.0,Westbound Kingsway @ Barker Ave,49.232216,-123.010599
11770,61680.0,Northbound 80 St @ Churchill St,49.081159,-123.001684
11771,61578.0,Northbound 152 St @ 66A Ave,49.124033,-122.800828
11773,55182.0,Southbound 80 St @ Ladner Trunk Rd,49.089478,-123.001785
11775,61683.0,Southbound 200 St @ 56 Ave,49.103889,-122.668931
11778,61615.0,Eastbound Golden Ears Way @ 176 St,49.175934,-122.733272
1178,51169.0,Westbound Kingsway @ Inman Ave,49.232908,-123.016178
11781,59632.0,Southbound Harris Rd @ Civic Centre,49.221301,-122.689721
11782,61679.0,Eastbound 10 Ave @ 54A St,49.021959,-123.072799
11785,61685.0,Eastbound Lougheed Hwy @ Kennedy Rd,49.242957,-122.719855
11788,61693.0,Bridgeport Station @ Bay 6,49.19488,-123.127321
1179,51170.0,Westbound Kingsway @ Smith Ave,49.23266,-123.019689
11792,58895.0,UBC Exchange @ Bay 9,49.265726,-123.248724
11793,61701.0,UBC Exchange @ Bay 10,49.26581,-123.248129
11794,61702.0,UBC Exchange @ Bay 11,49.265923,-123.247364
11797,61691.0,Southbound East Rd @ 1400 Block,49.304406,-122.838698
11798,61716.0,Carvolth Exchange @ Bay 8,49.159711,-122.660703
11799,61717.0,Carvolth Exchange @ Bay 9,49.159965,-122.660566
1180,51171.0,Westbound Kingsway @ Boundary Rd,49.232527,-123.022197
11801,61719.0,Carvolth Exchange @ Bay 11,49.160528,-122.660365
11802,61720.0,Carvolth Exchange @ Bay 12,49.16069,-122.660274
11805,61709.0,Carvolth Exchange @ Bay 1 Unloading Only,49.160693,-122.660159
11806,61710.0,Carvolth Exchange @ Bay 2,49.160518,-122.660253
11807,61711.0,Carvolth Exchange @ Bay 3,49.160288,-122.660329
11808,61712.0,Carvolth Exchange @ Bay 4,49.160115,-122.660383
1181,51172.0,Westbound Kingsway @ Boundary Rd,49.232402,-123.024096
11810,61714.0,Carvolth Exchange @ Bay 6,49.159698,-122.660586
11811,61715.0,Carvolth Exchange @ Bay 7,49.15953,-122.660673
11813,61684.0,Westbound Great Northern Way @ Thornton St,49.266906,-123.09471
11815,57090.0,Eastbound Fraser Hwy @ 176 St,49.13705,-122.732747
11816,61723.0,Northbound 200 St @ 84 Ave,49.156153,-122.667754
11817,55350.0,Westbound Fraser Hwy @ 176 St,49.139025,-122.736472
11818,61724.0,Southbound 200 St @ 84 Ave,49.155167,-122.668315
11819,61730.0,Southbound 152 St @ 104 Ave,49.190921,-122.801015
1182,51173.0,Westbound Kingsway @ Lincoln St,49.232284,-123.026273
11822,59439.0,Eastbound North Bluff Rd @ Kent St,49.030998,-122.784269
11825,61731.0,Westbound 16 Ave @ Kent St,49.031144,-122.785238
11826,61735.0,Northbound 116 St @ 72A Ave,49.135118,-122.901365
11827,58779.0,Southbound Ioco Rd @ Newport Dr,49.282924,-122.828278
11828,61732.0,Eastbound 56 Ave @ 128 St,49.104457,-122.868058
11829,60562.0,Northbound N Boundary Rd @ Trinity St,49.289497,-123.023179
1183,51174.0,Westbound Kingsway @ Melbourne St,49.232118,-123.029643
11831,61755.0,Westbound 56 Ave @ 128 St,49.104514,-122.867495
11839,61643.0,Northbound 192 St @ 28 Ave,49.053205,-122.691408
11840,61437.0,Eastbound Westminster Hwy @ Kartner Rd,49.169851,-123.035007
11841,61438.0,Westbound Westminster Hwy @ Kartner Rd,49.169937,-123.035897
11843,60785.0,Northbound 188 St @ 68 Ave,49.126646,-122.701633
11845,61675.0,Westbound E Royal Ave @ McBride Blvd,49.212748,-122.898522
11846,61676.0,Eastbound E Royal Ave @ McBride Blvd,49.212701,-122.898435
11847,61761.0,Southbound 202 St @ 8900 Block,49.164206,-122.660614
11848,61727.0,Westbound Ewen Ave @ Derwent Way,49.191588,-122.934168
1185,51176.0,Westbound Kingsway @ Wessex St,49.233186,-123.033761
11850,54802.0,Northbound Nordel Way @ Swenson Way,49.151842,-122.943273
11851,54803.0,Northbound Nordel Way @ Nordel Court,49.14952,-122.943221
11852,61767.0,Tsawwassen Ferry Terminal @ Bay 2,49.006806,-123.129744
11855,54858.0,Southbound Nordel Way @ River Rd,49.153627,-122.944322
11856,61765.0,Southbound Nordel Way @ Swenson Way,49.151122,-122.943536
11857,61766.0,Southbound Nordel Way @ River Way,49.148663,-122.94348
11858,61703.0,Newton Exchange @ Bay 12,49.133491,-122.840565
1186,51177.0,Westbound Kingsway @ Joyce St,49.234462,-123.036193
11860,61704.0,Newton Exchange @ Bay 9,49.133098,-122.842704
11861,61705.0,Newton Exchange @ Bay 10,49.132578,-122.842905
11864,61777.0,Northbound 128 St @ 86 Ave,49.159231,-122.867853
11865,61778.0,Southbound 128 St @ 86 Ave,49.158447,-122.868154
11866,61772.0,Park Royal @ Bay 1,49.327137,-123.138513
11867,61782.0,Park Royal @ Bay 4,49.326832,-123.138645
11868,61776.0,Eastbound Marine Dr @ South Mall Access,49.326699,-123.141262
1187,51178.0,Southbound Joyce St @ Kingsway,49.233838,-123.036343
11870,55839.0,Eastbound 108 Ave @ Whalley Blvd,49.198765,-122.841931
11871,61800.0,Victoria Dr @ 54th Avenue Loop,49.219851,-123.065682
11872,56596.0,Northbound Entertainment Blvd @ Steveston Hwy,49.134871,-123.064805
11874,61802.0,Brentwood Station @ Bay 2,49.266554,-123.001462
11875,61803.0,Brentwood Station @ Bay 3,49.266221,-122.99977
11878,61806.0,Brentwood Station @ Bay 6,49.267569,-123.003374
11879,61807.0,Southbound Willingdon Ave @ Halifax St,49.268608,-123.003388
1188,51179.0,Westbound E 41 Ave @ School Ave,49.233084,-123.03794
11880,61781.0,Eastbound 86 Ave @ 200 St,49.159084,-122.666944
11882,61787.0,Surrey Central Station @ Bay 14,49.189133,-122.847582
1189,51180.0,Westbound E 41 Ave @ Kerr St,49.233031,-123.040741
11895,61823.0,Westbound River Rd @ Centre St,49.157514,-122.939862
11896,61745.0,Eastbound Como Lake Ave @ Banting St,49.263529,-122.876334
11897,61746.0,Westbound Como Lake Ave @ Banting St,49.263666,-122.877786
11898,61748.0,Westbound Como Lake Ave @ Robinson St,49.263627,-122.881123
11899,61763.0,Northbound 192 St @ 68 Ave,49.126705,-122.690739
119,50119.0,Southbound Macdonald St @ W 21 Ave,49.253375,-123.16787
1190,51181.0,Westbound E 41 Ave @ Rupert St,49.233057,-123.043713
11900,60766.0,Northbound 192 St @ 70 Ave,49.130327,-122.690724
11901,60759.0,Southbound 192 St @ 72 Ave,49.133016,-122.690955
11902,60760.0,Southbound 192 St @ 70 Ave,49.129682,-122.690987
11903,60767.0,Westbound 72 Ave @ 192 St,49.133736,-122.691418
11905,61796.0,Westbound 72 Ave @ 152 St,49.133757,-122.802055
11906,52485.0,Westbound 8th Ave @ 6th St,49.215907,-122.924286
11907,61799.0,Eastbound 72 Ave @ 144 St,49.133659,-122.822719
11908,61798.0,Eastbound 72 Ave @ 148 St,49.133635,-122.811447
11909,61737.0,Eastbound 8th Ave @ 6th St,49.216205,-122.923443
1191,51182.0,Westbound E 41 Ave @ Killarney St,49.23303,-123.046378
11910,61797.0,Westbound 72 Ave @ 148 St,49.133833,-122.812711
11911,61736.0,Eastbound 8th Ave @ 8th St,49.214252,-122.927079
11912,61515.0,Eastbound United Blvd @ King Edward St,49.230419,-122.859689
11913,61786.0,Northbound King George Blvd @ 58A Ave,49.108819,-122.836312
11919,58262.0,Eastbound 12 Ave @ 2nd St,49.223902,-122.92304
1192,51183.0,Westbound E 41 Ave @ Earles St,49.232858,-123.049155
11920,61793.0,Westbound 24 Ave @ 184 St,49.045743,-122.714058
11921,61795.0,Westbound 24 Ave @ 190 St,49.045761,-122.696268
11922,61794.0,Eastbound 24 Ave @ 190 St,49.045617,-122.696216
11923,61792.0,Eastbound 24 Ave @ 184 St,49.045639,-122.712661
11924,61790.0,Eastbound 24 Ave @ 180 St,49.045637,-122.723889
11925,61791.0,Westbound 24 Ave @ 180 St,49.045731,-122.724831
11927,56914.0,Eastbound Ewen Ave @ Jardine St,49.185358,-122.948641
11928,56003.0,Southbound 150 St @ 102A Ave,49.188643,-122.806529
11929,61553.0,Eastbound W 3rd St @ Bewicke Ave,49.320065,-123.091862
1193,51184.0,Westbound Kingsway @ McKinnon St,49.235237,-123.038053
11931,61789.0,Northbound 152 St @ 40 Ave,49.074116,-122.800969
11932,61811.0,Southbound No. 5 Rd @ Steveston Hwy,49.134132,-123.092199
11933,61758.0,Southbound 168 St @ 96 Ave,49.176639,-122.756708
11934,61852.0,Westbound 122 Ave @ 191B St,49.224405,-122.691016
1194,51185.0,Westbound Kingsway @ Spencer St,49.235933,-123.041047
11940,61892.0,Moody Centre Station @ Bay 5,49.277828,-122.846536
11941,61891.0,Moody Centre Station @ Bay 6,49.277828,-122.84682
11942,61890.0,Moody Centre Station @ Bay 7,49.27783,-122.847102
11943,61889.0,Moody Centre Station @ Bay 8,49.277832,-122.847385
11944,58619.0,Westbound River Rd @ 6400 Block,49.132152,-123.043225
11948,61900.0,Eastbound Agronomy Rd @ West Mall,49.260466,-123.252885
11949,59279.0,Eastbound David Ave @ Shaughnessy St,49.294599,-122.770477
1195,51186.0,Westbound Kingsway @ Rupert St,49.236114,-123.04296
11950,59285.0,Southbound Coast Meridian Rd @ David Ave,49.292425,-122.756078
11951,61585.0,Southbound Coast Meridian Rd @ Mason Ave,49.28896,-122.756098
11953,59145.0,Westbound McLean Ave @ Taylor St,49.253331,-122.770088
11955,61898.0,Northbound Shaughnessy St @ Central Ave,49.256321,-122.782572
11956,61845.0,Southbound Coast Meridian Rd @ Chelsea Ave,49.281867,-122.756128
11957,59278.0,Westbound David Ave @ Shaughnessy St,49.294891,-122.771517
11958,59283.0,Westbound David Ave @ Coast Meridian Rd,49.293012,-122.756359
11959,59399.0,Westbound David Ave @ Pipeline Rd,49.292923,-122.782894
1196,51187.0,Westbound Kingsway @ Fairmont St,49.236931,-123.046942
11960,61586.0,Northbound Coast Meridian Rd @ Gislason Ave,49.289783,-122.75574
11961,59146.0,Eastbound McLean Ave @ Taylor St,49.253224,-122.770042
11962,61847.0,Northbound Coast Meridian Rd @ Angelo Ave,49.261282,-122.75594
11964,61846.0,Northbound Coast Meridian Rd @ Lincoln Dr,49.27879,-122.75598
11965,61844.0,Northbound Coast Meridian Rd @ Apel Dr,49.281729,-122.755944
11967,61838.0,Northbound Noons Creek Dr @ David Ave,49.295935,-122.819708
11969,61837.0,Southbound Noons Creek Dr @ David Ave,49.295933,-122.820031
1197,51188.0,Westbound Kingsway @ Rhodes St,49.238483,-123.050491
11971,61872.0,Eastbound McClure Dr @ 24100 Block,49.194721,-122.55298
11972,61873.0,Westbound McClure Dr @ 106 Ave,49.195789,-122.553666
11973,61861.0,Westbound 119 Ave @ 19100 Block,49.219079,-122.69135
11974,61879.0,Westbound McClure Dr @ 245 St,49.194828,-122.542889
11975,61880.0,Eastbound McClure Dr @ 245B St,49.195262,-122.541457
11976,61862.0,Southbound Blakely Rd @ Hammond Rd,49.216944,-122.683861
11977,61876.0,Westbound McClure Dr @ 244 St,49.195365,-122.54663
11978,61865.0,Southbound Bonson Rd @ 116A Ave,49.21369,-122.678318
11979,61874.0,Westbound McClure Dr @ 243 St,49.194833,-122.550018
1198,51189.0,Westbound Kingsway @ Victoria Dr,49.245543,-123.065671
11980,61860.0,Northbound 190A St @ 119B Ave,49.220405,-122.693665
11981,61875.0,Eastbound McClure Dr @ 243 St,49.194734,-122.549951
11982,61877.0,Eastbound McClure Dr @ 244 St,49.195509,-122.545859
11983,61864.0,Eastbound 116B Ave @ 195A St,49.214371,-122.679849
11984,61878.0,Eastbound McClure Dr @ 245 St,49.194864,-122.543143
11985,61853.0,Westbound 122 Ave @ 190 St,49.224398,-122.695719
11986,61881.0,Westbound McClure Dr @ 245B St,49.19535,-122.54148
11987,61866.0,Northbound Bonson Rd @ 114B Ave,49.21106,-122.678215
11988,61868.0,Northbound Wildwood Cres @ Wildwood Place,49.212939,-122.670651
11989,61882.0,Eastbound McClure Dr @ 24700 Block,49.196319,-122.539093
1199,51190.0,Westbound Kingsway @ Welwyn St,49.247236,-123.069355
11990,61883.0,Westbound McClure Dr @ Kimola Dr,49.196525,-122.539082
11991,61884.0,Northbound 248 St @ 106B Ave,49.196959,-122.534476
11992,61867.0,Eastbound S Wildwood Cres @ 19800 Block,49.210658,-122.671642
11993,61886.0,Southbound Jackson Rd @ 105A Ave,49.193971,-122.537497
11994,61887.0,Northbound Jackson Rd @ 105A Ave,49.193787,-122.537392
11996,61869.0,Westbound N Wildwood Cres @ 19800 Block,49.214735,-122.672857
11997,61885.0,Southbound 248 St @ 106B Ave,49.196486,-122.534693
11998,61139.0,Eastbound McClure Dr @ 240 St,49.196882,-122.556161
11999,61856.0,Eastbound Ford Rd @ 189B St,49.222368,-122.695449
12000,61857.0,Southbound 190A St @ 119B Ave,49.220372,-122.693836
12001,61858.0,Eastbound 119 Ave @ 190A St,49.218975,-122.693046
12002,61859.0,Northbound 190A St @ 119 Ave,49.219307,-122.69349
12003,61863.0,Southbound Blakely Rd @ 116B Ave,49.214957,-122.68389
12004,61850.0,Westbound Park Rd @ 194B St,49.225648,-122.682619
12005,61849.0,Westbound Park Rd @ 193 St,49.225644,-122.686546
12006,61851.0,Southbound Park Rd @ Somerset Dr,49.225053,-122.677101
12007,61895.0,Eastbound Thunderbird Blvd @ Eagles Dr,49.259395,-123.247674
12008,61832.0,Southbound East Mall @ Eagles Dr,49.258079,-123.24443
12009,61894.0,Eastbound Ross Dr @ Birney Ave,49.251615,-123.237747
1201,51192.0,Westbound Kingsway @ Dumfries St,49.248894,-123.072897
12010,61424.0,Southbound West Mall @ NW Marine Dr,49.268113,-123.258499
12011,61896.0,Southbound Lower Mall @ University Blvd,49.263228,-123.256272
12012,61893.0,Westbound Ross Dr @ Birney Ave,49.251694,-123.237733
12013,61833.0,Northbound East Mall @ Eagles Dr,49.25836,-123.244207
12015,61897.0,Westbound River Rd @ 6100 Block,49.172878,-123.154608
12016,61848.0,Northbound 192A St @ Davison Rd,49.227799,-122.688454
12018,61750.0,Eastbound Dewdney Trunk Rd @ Lougheed Hwy,49.268018,-122.796872
1202,51193.0,Westbound Kingsway @ Knight St,49.25051,-123.076585
12020,61912.0,Moody Centre Station @ Bay 4,49.277799,-122.846165
12021,61749.0,Westbound Dewdney Trunk Rd @ Westwood St,49.268102,-122.791167
12022,61911.0,Moody Centre Station @ Bay 3,49.277757,-122.84582
12025,61909.0,Southbound Forbes Ave @ W 1st St,49.314507,-123.086018
12026,61810.0,Northbound Smithe St @ Expo Blvd,49.276112,-123.114934
12027,52123.0,Marpole Loop @ Bay 5,49.203203,-123.133071
12028,53163.0,Northbound Johnson St @ Glen Dr,49.283095,-122.801558
12029,61669.0,Westbound North Fraser Way @ Northbrook Court,49.200729,-123.015264
1203,51194.0,Westbound Kingsway @ Inverness St,49.252366,-123.080257
12030,61670.0,Westbound North Fraser Way @ Fraserwood Court,49.20149,-123.018581
12036,61917.0,Westbound W Pender St @ Howe St,49.285131,-123.115432
12037,61927.0,Westbound 60 Ave @ 196 St,49.111311,-122.680862
12038,61929.0,Northbound Glover Rd @ Telegraph Trail,49.149732,-122.594593
12039,61928.0,Southbound Glover Rd @ Telegraph Trail,49.149783,-122.59478
1204,51195.0,Westbound Kingsway @ Windsor St,49.254147,-123.084079
12040,61809.0,Eastbound Cornwall Ave @ Trafalgar St,49.272658,-123.163937
12041,59373.0,Westbound River Rd @ Millar Rd,49.182283,-122.907299
12043,61931.0,Eastbound Oxford Connector @ Oxford St,49.263926,-122.768818
12044,61926.0,Northbound 124 St @ 60 Ave,49.111528,-122.879004
12045,61939.0,Southbound 128 St @ 7000 Block,49.131129,-122.867965
12046,61943.0,Northbound Scott Rd @ 104 Ave,49.194373,-122.887867
12047,61574.0,Southbound Scott Rd @ Tannery Rd,49.19348,-122.889466
12048,61826.0,Southbound Clarendon St @ E 33 Ave,49.239443,-123.055538
12049,61949.0,Eastbound Queens Ave @ 27 St,49.34369,-123.18853
12050,61825.0,Northbound Clarendon St @ E 33 Ave,49.23952,-123.055375
12051,61946.0,Southbound 196 St @ 56 Ave,49.103678,-122.680075
12052,61947.0,Westbound 54 Ave @ Production Blvd,49.100228,-122.682839
12053,61948.0,Westbound 54 Ave @ 192 St,49.101285,-122.690136
12054,61951.0,Eastbound Queens Ave @ 21 St,49.34182,-123.16867
12057,61935.0,UBC Exchange @ Bay 7,49.267419,-123.246831
12059,61953.0,Northbound Maple St @ Elgin Ave,49.264587,-122.781442
1206,51197.0,Westbound Kingsway @ Fraser St,49.257027,-123.090227
12063,61962.0,Southbound 156 St @ Hwy One Offramp,49.19495,-122.789844
12064,61961.0,Northbound 156 St @ Hwy One Onramp,49.194903,-122.789679
12065,61960.0,Eastbound Hwy One Offramp @ 156 St,49.195334,-122.790095
12066,61959.0,Westbound Hwy One Offramp @ 156 St,49.195292,-122.78945
1207,51198.0,Westbound Kingsway @ St. George St,49.25817,-123.093585
12070,61933.0,Eastbound Cordova Diversion @ Hawks Ave,49.282079,-123.086623
12071,61930.0,Westbound Powell St @ Clark Dr,49.283161,-123.076463
12076,59552.0,Westbound Boyd St @ Gifford St,49.184961,-122.953118
12077,59556.0,Eastbound Boyd St @ Gifford St,49.185476,-122.95184
1208,51199.0,Westbound Kingsway @ E 12 Ave,49.260171,-123.096663
12080,61978.0,Lansdowne Station @ Bay 3,49.175079,-123.136907
12081,61945.0,Eastbound Mufford Cres @ 62 Ave,49.114478,-122.645921
12082,61944.0,Westbound Mufford Cres @ 62 Ave,49.115698,-122.64798
12083,53258.0,Eastbound Ioco Rd @ Bentley Rd,49.290987,-122.845367
12086,61938.0,Westbound Quayside Dr @ Reliance Court,49.199058,-122.917675
12087,61504.0,Westbound Agnes St @ Elliot St,49.208075,-122.904083
12088,61977.0,Eastbound North Fraser Way @ Tillicum St,49.189656,-122.988442
12089,61976.0,Westbound North Fraser Way @ Tillicum St,49.190273,-122.988946
12090,61975.0,Eastbound North Fraser Way @ 8000 Block,49.188967,-122.98073
12091,61974.0,Westbound North Fraser Way @ 8000 Block,49.188912,-122.982503
12092,61973.0,Eastbound North Fraser Way @ Wiggins St,49.191324,-122.975455
12093,61972.0,Westbound North Fraser Way @ Wiggins St,49.191133,-122.976246
12094,61971.0,Eastbound North Fraser Way @ 8200 Block,49.192522,-122.973314
12095,61970.0,Westbound North Fraser Way @ 8200 Block,49.193424,-122.972034
12096,61423.0,Eastbound North Fraser Way @ Glenlyon Parkway East,49.196331,-122.996932
12097,61969.0,Eastbound North Fraser Way @ Glenwood Dr,49.194501,-122.969672
12098,61422.0,Westbound North Fraser Way @ Glenlyon Parkway East,49.197454,-122.998035
12099,61968.0,Westbound North Fraser Way @ Meadow Ave,49.195234,-122.96929
121,50121.0,Southbound Macdonald St @ Alamein Ave,49.249795,-123.167932
12100,61967.0,Southbound Marine Way @ Market Crossing,49.19909,-122.978586
12101,60006.0,Eastbound W Broadway @ Columbia St,49.26302,-123.10905
12102,61209.0,Westbound 88 Ave @ 168 St,49.162916,-122.757345
12103,61210.0,Northbound 168 St @ 88 Ave,49.163302,-122.756466
12104,57652.0,Southbound Maple Meadows Way @ 200 St,49.220333,-122.666916
12108,60721.0,Westbound Dunn Ave @ Maple Meadows Way,49.218024,-122.668853
1211,51202.0,Westbound Harrison Dr @ Victoria Dr,49.210673,-123.065781
12110,61990.0,Eastbound Kingsway @ Gladstone St,49.243197,-123.061284
12115,59536.0,Southbound Main St @ E 28 Ave,49.245403,-123.101378
12116,51948.0,Westbound SW Marine Dr @ Heather St,49.207414,-123.123941
1212,51203.0,Northbound Victoria Dr @ Fraserview Dr,49.212765,-123.065964
12122,53643.0,Northbound Nancy Greene Way @ Woodchuck Place,49.364696,-123.102814
12125,61690.0,Northbound East Rd @ 1400 Block,49.304307,-122.838479
1213,51204.0,Northbound Victoria Dr @ E 61 Ave,49.214832,-123.065913
12134,61503.0,Eastbound E 41 Ave @ Fraser St,49.232781,-123.090946
12139,59555.0,Eastbound Westminster Hwy @ Boundary Rd,49.183562,-122.957993
1214,51205.0,Northbound Victoria Dr @ Brigadoon Ave,49.21691,-123.065874
12140,59026.0,Eastbound United Blvd @ Fawcett,49.228759,-122.835425
12141,61966.0,Northbound Marine Way @ Market Crossing,49.200254,-122.97942
12145,60707.0,Westbound Fraser Hwy @ 260 St,49.061753,-122.504474
12146,60708.0,Eastbound Fraser Hwy @ 260 St,49.061253,-122.502649
12148,59292.0,Southbound Fraser St @ E 19 Ave,49.253864,-123.090092
12149,57161.0,Westbound 29 Ave @ 266B St,49.055535,-122.485973
1215,51206.0,Northbound Victoria Dr @ Upland Dr,49.218398,-123.065832
12151,61903.0,Eastbound 72 Ave @ 146 St,49.133677,-122.817341
12152,61902.0,Westbound 72 Ave @ 146 St,49.133818,-122.818323
12153,59306.0,Eastbound Westminster Hwy @ McMillan Way,49.169174,-122.993088
12155,59339.0,King George Station @ Bay 4,49.182677,-122.845166
1216,51207.0,Northbound Victoria Dr @ E 54 Ave,49.220662,-123.065738
12160,59425.0,Eastbound Queens Ave @ 18 St,49.341768,-123.162543
12161,59422.0,Eastbound Burley Dr @ Braeside St,49.337887,-123.142842
12162,59426.0,Eastbound Burley Dr @ Kings Ave,49.336338,-123.13917
12163,59427.0,Northbound 27 St @ Marine Dr,49.336316,-123.188802
12167,52482.0,Westbound Ovens Ave @ Colborne St,49.221993,-122.915253
12168,60745.0,Dunbar Loop @ Bay 3,49.234673,-123.186318
12169,59587.0,Northbound Lower Mall @ University Blvd,49.263181,-123.256083
1217,51208.0,Northbound Victoria Dr @ E 51 Ave,49.223425,-123.065653
12172,59419.0,Westbound Cook Rd @ Pimlico Way,49.166519,-123.126109
12173,59863.0,Langley Centre @ Bay 7,49.107179,-122.655848
12176,60001.0,Northbound 160 St @ 96 Ave,49.177371,-122.778703
1218,51209.0,Northbound Victoria Dr @ E 49 Ave,49.225458,-123.065603
12182,59935.0,Lincoln Station @ Bay 2,49.280122,-122.793523
12183,60023.0,Southbound Arlington St @ E 49 Ave,49.222808,-123.028887
12184,60024.0,Southbound Champlain Cres @ E 54 Ave,49.219811,-123.032506
